=~=~=~=~=~=~=~=~=~=~=~= PuTTY log 2018.04.05 15:21:01 =~=~=~=~=~=~=~=~=~=~=~=
$GPRMC,192101.00,A,4239.49181,N,08314.62116,W,0.033,,050418,,,D*60
$GPVTG,,T,,M,0.033,N,0.062,K,D*22
$GPGGA,192101.00,4239.49181,N,08314.62116,W,2,10,0.86,281.6,M,-34.9,M,,0000*63
$GPGSA,A,3,08,27,09,07,23,16,30,11,28,18,,,1.55,0.86,1.29*02
$GPGSV,4,1,16,05,00,315,,07,54,310,41,08,67,161,45,09,48,232,42*76
$GPGSV,4,2,16,11,14,171,34,16,25,062,35,18,07,150,25,21,03,029,18*70
$GPGSV,4,3,16,23,27,189,43,26,01,073,15,27,53,062,44,28,10,256,32*73
$GPGSV,4,4,16,30,27,304,31,46,23,237,,48,20,240,29,51,35,213,36*7C
$GPGLL,4239.49181,N,08314.62116,W,192101.00,A,D*71
$GPRMC,192102.00,A,4239.49179,N,08314.62115,W,0.017,,050418,,,D*61
$GPVTG,,T,,M,0.017,N,0.031,K,D*22
$GPGGA,192102.00,4239.49179,N,08314.62115,W,2,10,0.86,281.8,M,-34.9,M,,0000*6A
$GPGSA,A,3,08,27,09,07,23,16,30,11,28,18,,,1.55,0.86,1.29*02
$GPGSV,4,1,16,05,00,315,,07,54,310,42,08,67,161,47,09,48,232,43*76
$GPGSV,4,2,16,11,14,171,36,16,25,062,36,18,07,150,26,21,03,029,18*72
$GPGSV,4,3,16,23,27,189,44,26,01,073,12,27,53,062,46,28,10,256,33*70
$GPGSV,4,4,16,30,27,304,31,46,23,237,,48,20,240,30,51,35,213,38*7A
$GPGLL,4239.49179,N,08314.62115,W,192102.00,A,D*76
$GPRMC,192103.00,A,4239.49178,N,08314.62114,W,0.049,,050418,,,D*6B
$GPVTG,,T,,M,0.049,N,0.090,K,D*22
$GPGGA,192103.00,4239.49178,N,08314.62114,W,2,10,0.86,282.0,M,-34.9,M,,0000*60
$GPGSA,A,3,08,27,09,07,23,16,30,11,28,18,,,1.55,0.86,1.29*02
$GPGSV,4,1,16,05,00,315,,07,54,310,43,08,67,161,49,09,48,232,45*7F
$GPGSV,4,2,16,11,14,171,36,16,25,062,36,18,07,150,31,21,03,029,17*7B
$GPGSV,4,3,16,23,27,189,47,26,01,073,10,27,53,062,49,28,10,256,36*7B
$GPGSV,4,4,16,30,27,304,30,46,23,237,,48,20,240,,51,35,213,38*78
$GPGLL,4239.49178,N,08314.62114,W,192103.00,A,D*77
$GPRMC,192104.00,A,4239.49174,N,08314.62118,W,0.043,,050418,,,D*66
$GPVTG,,T,,M,0.043,N,0.080,K,D*29
$GPGGA,192104.00,4239.49174,N,08314.62118,W,2,10,0.86,282.2,M,-34.9,M,,0000*65
$GPGSA,A,3,08,27,09,07,23,16,30,11,28,18,,,1.55,0.86,1.29*02
$GPGSV,4,1,16,05,00,315,,07,54,310,40,08,67,161,47,09,48,232,43*74
$GPGSV,4,2,16,11,14,171,35,16,25,062,35,18,07,150,31,21,03,029,19*75
$GPGSV,4,3,16,23,27,189,45,26,01,073,10,27,53,062,47,28,10,256,36*77
$GPGSV,4,4,16,30,27,304,31,46,23,237,,48,20,240,31,51,35,213,36*75
$GPGLL,4239.49174,N,08314.62118,W,192104.00,A,D*70
$GPRMC,192105.00,A,4239.49169,N,08314.62123,W,0.050,,050418,,,D*61
$GPVTG,,T,,M,0.050,N,0.093,K,D*29
$GPGGA,192105.00,4239.49169,N,08314.62123,W,2,10,0.86,282.4,M,-34.9,M,,0000*66
$GPGSA,A,3,08,27,09,07,23,16,30,11,28,18,,,1.55,0.86,1.29*02
$GPGSV,4,1,16,05,00,315,,07,54,310,33,08,67,161,40,09,48,232,37*74
$GPGSV,4,2,16,11,14,171,30,16,25,062,31,18,07,150,25,21,03,029,19*71
$GPGSV,4,3,16,23,27,189,37,26,01,073,10,27,53,062,39,28,10,256,33*7E
$GPGSV,4,4,16,30,27,304,27,46,23,237,,48,20,240,30,51,35,213,31*74
$GPGLL,4239.49169,N,08314.62123,W,192105.00,A,D*75
$GPRMC,192106.00,A,4239.49165,N,08314.62126,W,0.033,,050418,,,D*6E
$GPVTG,,T,,M,0.033,N,0.062,K,D*22
$GPGGA,192106.00,4239.49165,N,08314.62126,W,2,10,0.86,282.6,M,-34.9,M,,0000*6E
$GPGSA,A,3,08,27,09,07,23,16,30,11,28,18,,,1.55,0.86,1.29*02
$GPGSV,4,1,16,05,00,315,,07,54,310,40,08,67,161,47,09,48,232,43*74
$GPGSV,4,2,16,11,14,171,34,16,25,062,35,18,07,150,31,21,03,029,20*7E
$GPGSV,4,3,16,23,27,189,46,26,01,073,11,27,53,062,47,28,10,256,36*75
$GPGSV,4,4,16,30,27,304,34,46,23,237,,48,20,240,33,51,35,213,39*7D
$GPGLL,4239.49165,N,08314.62126,W,192106.00,A,D*7F
$GPRMC,192107.00,A,4239.49161,N,08314.62128,W,0.027,,050418,,,D*60
$GPVTG,,T,,M,0.027,N,0.051,K,D*27
$GPGGA,192107.00,4239.49161,N,08314.62128,W,2,10,0.86,282.8,M,-34.9,M,,0000*6B
$GPGSA,A,3,08,27,09,07,23,16,30,11,28,18,,,1.55,0.86,1.29*02
$GPGSV,4,1,16,05,00,315,,07,54,310,33,08,67,161,40,09,48,232,37*74
$GPGSV,4,2,16,11,15,171,29,16,25,062,26,18,07,150,23,21,03,029,18*79
$GPGSV,4,3,16,23,27,189,38,26,01,073,11,27,53,062,40,28,10,256,29*75
$GPGSV,4,4,16,30,27,304,29,46,23,237,,48,20,240,28,51,35,213,30*72
$GPGLL,4239.49161,N,08314.62128,W,192107.00,A,D*74
$GPRMC,192108.00,A,4239.49157,N,08314.62128,W,0.036,,050418,,,D*6A
$GPVTG,,T,,M,0.036,N,0.067,K,D*22
$GPGGA,192108.00,4239.49157,N,08314.62128,W,2,10,0.86,282.8,M,-34.9,M,,0000*61
$GPGSA,A,3,08,27,09,07,23,16,30,11,28,18,,,1.55,0.86,1.29*02
$GPGSV,4,1,16,05,00,315,,07,54,310,41,08,67,161,48,09,48,232,46*7F
$GPGSV,4,2,16,11,15,171,34,16,25,062,35,18,07,150,30,21,03,029,18*75
$GPGSV,4,3,16,23,27,189,46,26,01,073,09,27,53,062,48,28,10,256,34*71
$GPGSV,4,4,16,30,27,304,28,46,23,237,,48,20,240,31,51,35,213,38*73
$GPGLL,4239.49157,N,08314.62128,W,192108.00,A,D*7E
$GPRMC,192109.00,A,4239.49153,N,08314.62129,W,0.025,,050418,,,D*6C
$GPVTG,,T,,M,0.025,N,0.046,K,D*23
$GPGGA,192109.00,4239.49153,N,08314.62129,W,2,10,0.86,282.9,M,-34.9,M,,0000*64
$GPGSA,A,3,08,27,09,07,23,16,30,11,28,18,,,1.55,0.86,1.29*02
$GPGSV,4,1,16,05,00,315,,07,54,310,38,08,67,161,45,09,48,232,44*7E
$GPGSV,4,2,16,11,15,171,30,16,25,062,34,18,07,150,30,21,03,029,18*70
$GPGSV,4,3,16,23,27,189,42,26,01,073,09,27,53,062,45,28,10,256,32*7E
$GPGSV,4,4,16,30,27,304,26,46,23,237,,48,20,240,29,51,35,213,36*7A
$GPGLL,4239.49153,N,08314.62129,W,192109.00,A,D*7A
$GPRMC,192110.00,A,4239.49151,N,08314.62127,W,0.036,,050418,,,D*6A
$GPVTG,,T,,M,0.036,N,0.066,K,D*23
$GPGGA,192110.00,4239.49151,N,08314.62127,W,2,10,0.86,282.9,M,-34.9,M,,0000*60
$GPGSA,A,3,08,27,09,07,23,16,30,11,28,18,,,1.55,0.86,1.29*02
$GPGSV,4,1,16,05,00,315,,07,54,310,42,08,67,161,48,09,48,232,46*7C
$GPGSV,4,2,16,11,15,171,30,16,25,062,33,18,07,150,24,21,03,029,17*7D
$GPGSV,4,3,16,23,27,189,45,26,01,073,09,27,53,062,48,28,10,256,32*74
$GPGSV,4,4,16,30,27,304,25,46,23,237,,48,20,240,27,51,35,213,38*79
$GPGLL,4239.49151,N,08314.62127,W,192110.00,A,D*7E
$GPRMC,192111.00,A,4239.49149,N,08314.62126,W,0.026,,050418,,,D*62
$GPVTG,,T,,M,0.026,N,0.047,K,D*21
$GPGGA,192111.00,4239.49149,N,08314.62126,W,2,10,0.86,283.0,M,-34.9,M,,0000*61
$GPGSA,A,3,08,27,09,07,23,16,30,11,28,18,,,1.55,0.86,1.29*02
$GPGSV,4,1,16,05,00,315,,07,54,310,36,08,67,161,45,09,48,232,44*70
$GPGSV,4,2,16,11,15,171,29,16,25,062,32,18,07,150,25,21,03,029,18*7A
$GPGSV,4,3,16,23,27,189,42,26,01,073,09,27,53,062,45,28,10,256,31*7D
$GPGSV,4,4,16,30,27,304,29,46,23,237,,48,20,240,,51,35,213,36*7E
$GPGLL,4239.49149,N,08314.62126,W,192111.00,A,D*77
$GPRMC,192112.00,A,4239.49148,N,08314.62124,W,0.063,,050418,,,D*63
$GPVTG,,T,,M,0.063,N,0.117,K,D*24
$GPGGA,192112.00,4239.49148,N,08314.62124,W,2,10,0.86,283.0,M,-34.9,M,,0000*61
$GPGSA,A,3,08,27,09,07,23,16,30,11,28,18,,,1.55,0.86,1.29*02
$GPGSV,4,1,16,05,00,315,,07,54,310,38,08,67,161,45,09,48,232,43*79
$GPGSV,4,2,16,11,15,171,28,16,25,062,30,18,07,150,24,21,03,029,15*75
$GPGSV,4,3,16,23,27,189,40,26,01,073,09,27,53,062,43,28,10,256,25*7C
$GPGSV,4,4,16,30,27,304,26,46,23,237,,48,20,240,29,51,35,213,36*7A
$GPGLL,4239.49148,N,08314.62124,W,192112.00,A,D*77
$GPRMC,192113.00,A,4239.49150,N,08314.62123,W,0.144,,050418,,,D*68
$GPVTG,,T,,M,0.144,N,0.267,K,D*24
$GPGGA,192113.00,4239.49150,N,08314.62123,W,2,10,0.86,283.0,M,-34.9,M,,0000*6E
$GPGSA,A,3,08,27,09,07,23,16,30,11,28,18,,,1.55,0.86,1.29*02
$GPGSV,4,1,16,05,00,315,,07,54,310,43,08,67,161,48,09,48,232,47*7C
$GPGSV,4,2,16,11,15,171,33,16,25,062,42,18,07,150,25,21,03,029,12*7C
$GPGSV,4,3,16,23,27,189,44,26,01,073,09,27,53,062,45,28,10,256,27*7C
$GPGSV,4,4,16,30,27,304,25,46,23,237,,48,20,240,34,51,35,213,41*75
$GPGLL,4239.49150,N,08314.62123,W,192113.00,A,D*78
$GPRMC,192114.00,A,4239.49151,N,08314.62124,W,0.021,,050418,,,D*6B
$GPVTG,,T,,M,0.021,N,0.040,K,D*21
$GPGGA,192114.00,4239.49151,N,08314.62124,W,2,10,0.86,283.1,M,-34.9,M,,0000*6E
$GPGSA,A,3,08,27,09,07,23,16,30,11,28,18,,,1.55,0.86,1.29*02
$GPGSV,4,1,16,05,00,315,,07,54,310,41,08,67,161,45,09,48,232,44*70
$GPGSV,4,2,16,11,15,171,33,16,25,062,40,18,07,150,21,21,03,029,09*70
$GPGSV,4,3,16,23,27,189,45,26,01,073,07,27,53,062,42,28,10,256,31*73
$GPGSV,4,4,16,30,27,304,22,46,23,237,,48,20,240,34,51,35,213,40*73
$GPGLL,4239.49151,N,08314.62124,W,192114.00,A,D*79
$GPRMC,192115.00,A,4239.49150,N,08314.62130,W,0.028,,050418,,,D*67
$GPVTG,,T,,M,0.028,N,0.051,K,D*28
$GPGGA,192115.00,4239.49150,N,08314.62130,W,2,10,0.86,283.2,M,-34.9,M,,0000*68
$GPGSA,A,3,08,27,09,07,23,16,30,11,28,18,,,1.55,0.86,1.29*02
$GPGSV,4,1,16,05,00,315,,07,54,310,42,08,67,161,47,09,48,232,46*73
$GPGSV,4,2,16,11,15,171,33,16,25,062,41,18,07,150,20,21,03,029,08*71
$GPGSV,4,3,16,23,27,189,45,26,01,073,07,27,53,062,45,28,10,256,31*74
$GPGSV,4,4,16,30,27,304,21,46,23,237,,48,20,240,36,51,35,213,42*70
$GPGLL,4239.49150,N,08314.62130,W,192115.00,A,D*7C
$GPRMC,192116.00,A,4239.49152,N,08314.62132,W,0.117,,050418,,,D*69
$GPVTG,,T,,M,0.117,N,0.216,K,D*24
$GPGGA,192116.00,4239.49152,N,08314.62132,W,2,10,0.86,283.2,M,-34.9,M,,0000*6B
$GPGSA,A,3,08,27,09,07,23,16,30,11,28,18,,,1.55,0.86,1.29*02
$GPGSV,4,1,16,05,00,315,,07,54,310,44,08,67,161,45,09,48,232,46*77
$GPGSV,4,2,16,11,15,171,36,16,25,062,41,18,07,150,16,21,03,029,08*71
$GPGSV,4,3,16,23,27,189,46,26,01,073,07,27,53,062,45,28,10,256,31*77
$GPGSV,4,4,16,30,27,304,20,46,23,237,,48,20,240,35,51,35,213,41*71
$GPGLL,4239.49152,N,08314.62132,W,192116.00,A,D*7F
$GPRMC,192117.00,A,4239.49155,N,08314.62130,W,0.031,,050418,,,D*68
$GPVTG,,T,,M,0.031,N,0.058,K,D*29
$GPGGA,192117.00,4239.49155,N,08314.62130,W,2,10,0.86,283.3,M,-34.9,M,,0000*6E
$GPGSA,A,3,08,27,09,07,23,16,30,11,28,18,,,1.55,0.86,1.29*02
$GPGSV,4,1,16,05,00,315,,07,54,310,43,08,67,161,46,09,48,232,46*73
$GPGSV,4,2,16,11,15,171,35,16,25,062,39,18,07,150,14,21,03,029,08*7F
$GPGSV,4,3,16,23,27,189,45,26,01,073,,27,53,062,44,28,10,256,33*70
$GPGSV,4,4,16,30,27,304,17,46,23,237,,48,20,240,34,51,35,213,39*7B
$GPGLL,4239.49155,N,08314.62130,W,192117.00,A,D*7B
$GPRMC,192118.00,A,4239.49163,N,08314.62127,W,0.353,,050418,,,D*63
$GPVTG,,T,,M,0.353,N,0.654,K,D*24
$GPGGA,192118.00,4239.49163,N,08314.62127,W,2,10,0.86,283.3,M,-34.9,M,,0000*62
$GPGSA,A,3,08,27,09,07,23,16,30,11,28,18,,,1.55,0.86,1.29*02
$GPGSV,4,1,16,05,00,315,,07,54,310,41,08,67,161,46,09,48,232,47*70
$GPGSV,4,2,16,11,15,171,28,16,25,062,38,18,07,150,16,21,03,029,08*70
$GPGSV,4,3,16,23,27,189,44,26,01,073,,27,53,062,43,28,10,256,36*73
$GPGSV,4,4,16,30,27,304,16,46,23,237,,48,20,240,34,51,35,213,41*75
$GPGLL,4239.49163,N,08314.62127,W,192118.00,A,D*77
$GPRMC,192119.00,A,4239.49165,N,08314.62099,W,0.968,150.62,050418,,,D*7C
$GPVTG,150.62,T,,M,0.968,N,1.792,K,D*32
$GPGGA,192119.00,4239.49165,N,08314.62099,W,2,10,0.86,283.4,M,-34.9,M,,0000*66
$GPGSA,A,3,08,27,09,07,23,16,30,11,28,18,,,1.55,0.86,1.29*02
$GPGSV,4,1,16,05,00,315,,07,54,310,40,08,67,161,47,09,48,232,44*73
$GPGSV,4,2,16,11,15,171,31,16,25,062,38,18,07,150,31,21,03,029,08*7D
$GPGSV,4,3,16,23,26,189,43,26,01,073,,27,53,062,41,28,10,256,27*77
$GPGSV,4,4,16,30,27,304,25,46,23,237,,48,20,240,29,51,35,213,37*78
$GPGLL,4239.49165,N,08314.62099,W,192119.00,A,D*74
$GPRMC,192120.00,A,4239.49168,N,08314.62047,W,1.487,110.18,050418,,,D*7C
$GPVTG,110.18,T,,M,1.487,N,2.754,K,D*3F
$GPGGA,192120.00,4239.49168,N,08314.62047,W,2,10,0.86,283.4,M,-34.9,M,,0000*62
$GPGSA,A,3,08,27,09,07,23,16,30,11,28,18,,,1.55,0.86,1.29*02
$GPGSV,4,1,16,05,00,315,,07,54,310,36,08,67,161,48,09,48,232,47*7E
$GPGSV,4,2,16,11,15,171,31,16,25,062,36,18,07,150,27,21,03,029,12*7F
$GPGSV,4,3,16,23,26,189,42,26,01,073,,27,53,062,44,28,10,256,26*72
$GPGSV,4,4,16,30,27,304,23,46,23,237,,48,20,240,34,51,35,213,39*7C
$GPGLL,4239.49168,N,08314.62047,W,192120.00,A,D*70
$GPRMC,192121.00,A,4239.49177,N,08314.62002,W,1.179,96.98,050418,,,D*41
$GPVTG,96.98,T,,M,1.179,N,2.183,K,D*00
$GPGGA,192121.00,4239.49177,N,08314.62002,W,2,10,0.86,283.3,M,-34.9,M,,0000*6B
$GPGSA,A,3,08,27,09,07,23,16,30,11,28,18,,,1.55,0.86,1.29*02
$GPGSV,4,1,16,05,00,315,20,07,54,310,37,08,67,161,46,09,48,232,46*72
$GPGSV,4,2,16,11,15,171,25,16,25,062,37,18,07,150,28,21,03,029,12*74
$GPGSV,4,3,16,23,26,189,45,26,01,073,,27,53,062,46,28,10,256,30*70
$GPGSV,4,4,16,30,27,304,23,46,23,237,,48,20,240,34,51,35,213,39*7C
$GPGLL,4239.49177,N,08314.62002,W,192121.00,A,D*7E
$GPRMC,192122.00,A,4239.49176,N,08314.61928,W,2.189,94.32,050418,,,D*4F
$GPVTG,94.32,T,,M,2.189,N,4.054,K,D*03
$GPGGA,192122.00,4239.49176,N,08314.61928,W,2,10,0.86,283.2,M,-34.9,M,,0000*6A
$GPGSA,A,3,08,27,09,07,23,16,30,11,28,18,,,1.55,0.86,1.29*02
$GPGSV,4,1,16,05,00,315,,07,54,310,45,08,67,161,49,09,48,232,45*79
$GPGSV,4,2,16,11,15,171,33,16,25,062,36,18,07,150,38,21,03,029,*70
$GPGSV,4,3,16,23,26,189,36,26,00,073,,27,53,062,43,28,10,256,23*72
$GPGSV,4,4,16,30,27,304,29,46,23,237,,48,20,240,,51,35,213,40*7F
$GPGLL,4239.49176,N,08314.61928,W,192122.00,A,D*7E
$GPRMC,192123.00,A,4239.49174,N,08314.61854,W,1.887,91.99,050418,,,D*46
$GPVTG,91.99,T,,M,1.887,N,3.495,K,D*0D
$GPGGA,192123.00,4239.49174,N,08314.61854,W,2,10,0.86,283.2,M,-34.9,M,,0000*63
$GPGSA,A,3,08,27,09,07,23,16,30,11,28,18,,,1.55,0.86,1.29*02
$GPGSV,4,1,16,05,00,315,,07,54,310,46,08,67,161,48,09,48,232,45*7B
$GPGSV,4,2,16,11,15,171,33,16,25,062,40,18,07,150,34,21,03,029,*7D
$GPGSV,4,3,16,23,26,189,38,26,00,073,,27,53,061,42,28,10,256,26*7B
$GPGSV,4,4,16,30,27,304,21,46,23,237,,48,20,240,32,51,35,213,38*79
$GPGLL,4239.49174,N,08314.61854,W,192123.00,A,D*77
$GPRMC,192124.00,A,4239.49174,N,08314.61781,W,1.967,89.83,050418,,,D*4B
$GPVTG,89.83,T,,M,1.967,N,3.643,K,D*09
$GPGGA,192124.00,4239.49174,N,08314.61781,W,2,09,0.89,283.3,M,-34.9,M,,0000*65
$GPGSA,A,3,08,27,09,07,23,16,30,28,18,,,,1.59,0.89,1.31*08
$GPGSV,4,1,16,05,00,315,,07,54,310,43,08,67,161,46,09,48,232,43*76
$GPGSV,4,2,16,11,15,171,27,16,25,062,36,18,07,150,29,21,03,029,*75
$GPGSV,4,3,16,23,26,189,39,26,00,073,,27,53,061,42,28,11,256,25*78
$GPGSV,4,4,16,30,27,304,22,46,23,237,35,48,20,240,30,51,35,213,37*71
$GPGLL,4239.49174,N,08314.61781,W,192124.00,A,D*77
$GPRMC,192125.00,A,4239.49178,N,08314.61705,W,1.957,87.77,050418,,,D*4C
$GPVTG,87.77,T,,M,1.957,N,3.624,K,D*0E
$GPGGA,192125.00,4239.49178,N,08314.61705,W,2,09,0.89,283.2,M,-34.9,M,,0000*65
$GPGSA,A,3,08,27,09,07,23,16,30,28,18,,,,1.59,0.89,1.31*08
$GPGSV,4,1,16,05,00,315,,07,54,310,44,08,67,161,49,09,48,232,46*7B
$GPGSV,4,2,16,11,15,171,26,16,25,062,38,18,07,150,34,21,03,029,*76
$GPGSV,4,3,16,23,26,189,40,26,00,073,,27,53,061,42,28,11,256,26*75
$GPGSV,4,4,16,30,27,304,32,46,23,237,36,48,20,240,34,51,35,213,41*76
$GPGLL,4239.49178,N,08314.61705,W,192125.00,A,D*76
$GPRMC,192126.00,A,4239.49180,N,08314.61637,W,1.763,88.18,050418,,,D*47
$GPVTG,88.18,T,,M,1.763,N,3.266,K,D*03
$GPGGA,192126.00,4239.49180,N,08314.61637,W,2,10,0.86,283.2,M,-34.9,M,,0000*66
$GPGSA,A,3,08,27,09,07,23,16,30,11,28,18,,,1.55,0.86,1.29*02
$GPGSV,4,1,16,05,00,315,,07,54,310,45,08,67,161,48,09,48,232,45*78
$GPGSV,4,2,16,11,15,171,37,16,25,062,40,18,07,150,27,21,03,029,*7B
$GPGSV,4,3,16,23,26,189,42,26,00,073,,27,53,061,44,28,11,256,26*71
$GPGSV,4,4,16,30,28,304,28,46,23,237,39,48,20,240,36,51,35,213,38*71
$GPGLL,4239.49180,N,08314.61637,W,192126.00,A,D*72
$GPRMC,192127.00,A,4239.49182,N,08314.61562,W,2.040,87.22,050418,,,D*44
$GPVTG,87.22,T,,M,2.040,N,3.779,K,D*0B
$GPGGA,192127.00,4239.49182,N,08314.61562,W,2,10,0.86,283.1,M,-34.9,M,,0000*65
$GPGSA,A,3,08,27,09,07,23,16,30,11,28,18,,,1.55,0.86,1.29*02
$GPGSV,4,1,16,05,00,315,,07,54,310,47,08,67,161,47,09,48,232,46*76
$GPGSV,4,2,16,11,15,171,30,16,25,062,38,18,07,150,25,21,03,029,*71
$GPGSV,4,3,16,23,26,189,44,26,00,073,,27,53,061,45,28,11,256,28*78
$GPGSV,4,4,16,30,28,304,27,46,23,237,37,48,20,240,35,51,35,213,41*7D
$GPGLL,4239.49182,N,08314.61562,W,192127.00,A,D*72
$GPRMC,192128.00,A,4239.49180,N,08314.61485,W,2.002,86.14,050418,,,D*43
$GPVTG,86.14,T,,M,2.002,N,3.708,K,D*0F
$GPGGA,192128.00,4239.49180,N,08314.61485,W,2,10,0.86,283.1,M,-34.9,M,,0000*60
$GPGSA,A,3,08,27,09,07,23,16,30,11,28,18,,,1.55,0.86,1.29*02
$GPGSV,4,1,16,05,00,315,25,07,54,310,46,08,67,161,50,09,48,232,45*75
$GPGSV,4,2,16,11,15,171,37,16,25,062,40,18,07,150,37,21,03,029,*7A
$GPGSV,4,3,16,23,26,189,41,26,00,073,,27,53,061,46,28,11,256,27*71
$GPGSV,4,4,16,30,28,304,26,46,23,237,39,48,20,240,35,51,35,213,43*70
$GPGLL,4239.49180,N,08314.61485,W,192128.00,A,D*77
$GPRMC,192129.00,A,4239.49183,N,08314.61415,W,1.847,89.77,050418,,,D*48
$GPVTG,89.77,T,,M,1.847,N,3.421,K,D*07
$GPGGA,192129.00,4239.49183,N,08314.61415,W,2,10,0.86,283.3,M,-34.9,M,,0000*69
$GPGSA,A,3,08,27,09,07,23,16,30,11,28,18,,,1.55,0.86,1.29*02
$GPGSV,4,1,16,05,00,315,,07,54,310,48,08,67,161,48,09,48,232,46*76
$GPGSV,4,2,16,11,15,171,38,16,25,062,37,18,07,150,39,21,03,029,*7B
$GPGSV,4,3,16,23,26,189,29,26,00,073,,27,53,061,44,28,11,256,27*7D
$GPGSV,4,4,16,30,28,304,31,46,23,237,35,48,20,240,37,51,35,213,34*78
$GPGLL,4239.49183,N,08314.61415,W,192129.00,A,D*7C
$GPRMC,192130.00,A,4239.49185,N,08314.61346,W,1.868,87.91,050418,,,D*4C
$GPVTG,87.91,T,,M,1.868,N,3.460,K,D*09
$GPGGA,192130.00,4239.49185,N,08314.61346,W,2,10,0.86,283.0,M,-34.9,M,,0000*65
$GPGSA,A,3,08,27,09,07,23,16,30,11,28,18,,,1.55,0.86,1.29*02
$GPGSV,4,1,16,05,00,315,,07,54,310,46,08,67,161,49,09,48,232,45*7A
$GPGSV,4,2,16,11,15,171,29,16,25,062,36,18,07,150,30,21,03,029,*73
$GPGSV,4,3,16,23,26,189,42,26,00,073,,27,53,061,46,28,11,256,32*76
$GPGSV,4,4,16,30,28,304,27,46,23,237,35,48,20,240,38,51,35,213,40*73
$GPGLL,4239.49185,N,08314.61346,W,192130.00,A,D*73
$GPRMC,192131.00,A,4239.49190,N,08314.61277,W,1.829,86.64,050418,,,D*44
$GPVTG,86.64,T,,M,1.829,N,3.387,K,D*09
$GPGGA,192131.00,4239.49190,N,08314.61277,W,2,10,0.86,283.1,M,-34.9,M,,0000*62
$GPGSA,A,3,08,27,09,07,23,16,30,11,28,18,,,1.55,0.86,1.29*02
$GPGSV,4,1,16,05,00,315,,07,54,310,47,08,67,161,47,09,48,232,47*77
$GPGSV,4,2,16,11,15,171,38,16,25,062,38,18,07,150,38,21,03,029,*75
$GPGSV,4,3,16,23,26,189,41,26,00,073,,27,53,061,46,28,11,256,32*75
$GPGSV,4,4,16,30,28,304,27,46,23,237,34,48,20,240,39,51,35,213,43*70
$GPGLL,4239.49190,N,08314.61277,W,192131.00,A,D*75
$GPRMC,192132.00,A,4239.49190,N,08314.61207,W,1.987,88.32,050418,,,D*48
$GPVTG,88.32,T,,M,1.987,N,3.680,K,D*03
$GPGGA,192132.00,4239.49190,N,08314.61207,W,2,10,0.86,283.1,M,-34.9,M,,0000*66
$GPGSA,A,3,08,27,09,07,23,16,30,11,28,18,,,1.55,0.86,1.29*02
$GPGSV,4,1,16,05,00,315,,07,54,310,47,08,67,161,48,09,48,232,44*7B
$GPGSV,4,2,16,11,15,171,38,16,25,062,38,18,07,150,34,21,03,029,*79
$GPGSV,4,3,16,23,26,189,42,26,00,073,,27,53,061,45,28,11,256,21*77
$GPGSV,4,4,16,30,28,304,28,46,23,237,35,48,20,240,34,51,35,213,42*72
$GPGLL,4239.49190,N,08314.61207,W,192132.00,A,D*71
$GPRMC,192133.00,A,4239.49184,N,08314.61138,W,1.756,90.47,050418,,,D*4A
$GPVTG,90.47,T,,M,1.756,N,3.252,K,D*01
$GPGGA,192133.00,4239.49184,N,08314.61138,W,2,10,0.86,282.9,M,-34.9,M,,0000*64
$GPGSA,A,3,08,27,09,07,23,16,30,11,28,18,,,1.55,0.86,1.29*02
$GPGSV,4,1,16,05,00,315,,07,54,310,48,08,67,161,51,09,48,232,48*70
$GPGSV,4,2,16,11,15,171,39,16,25,062,40,18,07,150,30,21,03,029,*73
$GPGSV,4,3,16,23,26,189,39,26,00,073,,27,53,061,47,28,11,256,29*71
$GPGSV,4,4,16,30,28,304,28,46,23,237,42,48,20,240,37,51,35,213,41*72
$GPGLL,4239.49184,N,08314.61138,W,192133.00,A,D*7A
$GPRMC,192134.00,A,4239.49188,N,08314.61075,W,1.784,90.06,050418,,,D*43
$GPVTG,90.06,T,,M,1.784,N,3.304,K,D*09
$GPGGA,192134.00,4239.49188,N,08314.61075,W,2,10,0.86,283.5,M,-34.9,M,,0000*6A
$GPGSA,A,3,08,27,09,07,23,16,30,11,28,18,,,1.55,0.86,1.29*02
$GPGSV,4,1,16,05,00,315,,07,54,310,45,08,67,161,47,09,48,232,44*76
$GPGSV,4,2,16,11,15,171,44,16,25,062,40,18,07,150,35,21,03,029,*7C
$GPGSV,4,3,16,23,26,189,41,26,00,073,,27,53,061,46,28,11,256,25*73
$GPGSV,4,4,16,30,28,304,35,46,23,237,37,48,20,240,35,51,35,213,36*7E
$GPGLL,4239.49188,N,08314.61075,W,192134.00,A,D*79
$GPRMC,192135.00,A,4239.49190,N,08314.61007,W,1.737,91.09,050418,,,D*48
$GPVTG,91.09,T,,M,1.737,N,3.217,K,D*0C
$GPGGA,192135.00,4239.49190,N,08314.61007,W,2,10,0.90,283.5,M,-34.9,M,,0000*60
$GPGSA,A,3,08,27,09,07,23,16,30,11,28,18,,,1.68,0.90,1.42*06
$GPGSV,4,1,16,05,00,315,,07,54,310,40,08,67,161,50,09,48,232,45*74
$GPGSV,4,2,16,11,15,171,30,16,25,062,37,18,07,150,36,21,03,029,*7C
$GPGSV,4,3,16,23,26,189,41,26,00,073,,27,53,061,44,28,11,256,24*70
$GPGSV,4,4,16,30,28,304,32,46,23,237,35,48,20,240,35,51,35,213,40*7A
$GPGLL,4239.49190,N,08314.61007,W,192135.00,A,D*74
$GPRMC,192136.00,A,4239.49197,N,08314.60940,W,1.873,87.29,050418,,,D*4D
$GPVTG,87.29,T,,M,1.873,N,3.469,K,D*09
$GPGGA,192136.00,4239.49197,N,08314.60940,W,2,10,0.86,283.8,M,-34.9,M,,0000*65
$GPGSA,A,3,08,27,09,07,23,16,30,11,28,18,,,1.55,0.86,1.29*02
$GPGSV,4,1,16,05,00,315,,07,54,310,45,08,67,161,49,09,48,232,42*7E
$GPGSV,4,2,16,11,15,171,34,16,25,062,39,18,07,150,35,21,03,029,*75
$GPGSV,4,3,16,23,26,189,43,26,00,073,,27,53,061,46,28,11,256,25*71
$GPGSV,4,4,16,30,28,304,35,46,23,237,35,48,20,240,37,51,35,213,42*7D
$GPGLL,4239.49197,N,08314.60940,W,192136.00,A,D*7B
$GPRMC,192137.00,A,4239.49210,N,08314.60868,W,2.045,85.21,050418,,,D*4F
$GPVTG,85.21,T,,M,2.045,N,3.787,K,D*0E
$GPGGA,192137.00,4239.49210,N,08314.60868,W,2,10,0.86,284.0,M,-34.9,M,,0000*6C
$GPGSA,A,3,08,27,09,07,23,16,30,11,28,18,,,1.55,0.86,1.29*02
$GPGSV,4,1,16,05,00,315,,07,54,310,45,08,67,161,48,09,48,232,42*7F
$GPGSV,4,2,16,11,15,171,38,16,25,062,34,18,07,150,34,21,03,029,*75
$GPGSV,4,3,16,23,26,189,31,26,00,073,,27,53,061,43,28,11,256,24*70
$GPGSV,4,4,16,30,28,304,24,46,23,237,33,48,20,240,34,51,35,213,43*79
$GPGLL,4239.49210,N,08314.60868,W,192137.00,A,D*7D
$GPRMC,192138.00,A,4239.49209,N,08314.60797,W,1.854,88.16,050418,,,D*45
$GPVTG,88.16,T,,M,1.854,N,3.434,K,D*07
$GPGGA,192138.00,4239.49209,N,08314.60797,W,2,10,0.86,284.0,M,-34.9,M,,0000*64
$GPGSA,A,3,08,27,09,07,23,16,30,11,28,18,,,1.55,0.86,1.29*02
$GPGSV,4,1,16,05,00,315,,07,54,310,47,08,67,161,51,09,48,232,44*73
$GPGSV,4,2,16,11,15,171,39,16,25,062,34,18,07,150,31,21,03,029,*71
$GPGSV,4,3,16,23,26,189,37,26,00,073,,27,53,061,46,28,11,256,25*72
$GPGSV,4,4,16,30,28,304,24,46,23,237,38,48,20,240,34,51,35,213,45*74
$GPGLL,4239.49209,N,08314.60797,W,192138.00,A,D*75
$GPRMC,192139.00,A,4239.49202,N,08314.60719,W,2.165,91.54,050418,,,D*4F
$GPVTG,91.54,T,,M,2.165,N,4.010,K,D*04
$GPGGA,192139.00,4239.49202,N,08314.60719,W,2,10,0.86,283.8,M,-34.9,M,,0000*67
$GPGSA,A,3,08,27,09,07,23,16,30,11,28,18,,,1.55,0.86,1.29*02
$GPGSV,4,1,16,05,00,315,,07,54,310,48,08,67,161,48,09,48,232,46*76
$GPGSV,4,2,16,11,15,171,37,16,25,062,35,18,07,150,29,21,03,029,*77
$GPGSV,4,3,16,23,26,189,31,26,00,073,,27,53,061,42,28,11,256,24*71
$GPGSV,4,4,16,30,28,304,26,46,23,237,36,48,20,240,36,51,35,213,45*7A
$GPGLL,4239.49202,N,08314.60719,W,192139.00,A,D*79
$GPRMC,192140.00,A,4239.49197,N,08314.60679,W,1.767,88.51,050418,,,D*43
$GPVTG,88.51,T,,M,1.767,N,3.273,K,D*0E
$GPGGA,192140.00,4239.49197,N,08314.60679,W,2,10,0.90,286.6,M,-34.9,M,,0000*6D
$GPGSA,A,3,08,27,09,07,23,16,30,11,28,18,,,1.68,0.90,1.42*06
$GPGSV,4,1,16,05,00,315,,07,54,310,46,08,67,161,48,09,48,232,46*78
$GPGSV,4,2,16,11,15,171,42,16,25,062,37,18,07,150,29,21,03,029,*77
$GPGSV,4,3,16,23,26,189,42,26,00,073,,27,53,061,46,28,11,256,24*71
$GPGSV,4,4,16,30,28,304,24,46,23,237,34,48,20,240,33,51,35,213,42*78
$GPGLL,4239.49197,N,08314.60679,W,192140.00,A,D*7F
$GPRMC,192141.00,A,4239.49221,N,08314.60610,W,1.937,87.27,050418,,,D*46
$GPVTG,87.27,T,,M,1.937,N,3.587,K,D*07
$GPGGA,192141.00,4239.49221,N,08314.60610,W,2,10,0.86,287.9,M,-34.9,M,,0000*64
$GPGSA,A,3,08,27,09,07,23,16,30,11,28,18,,,1.55,0.86,1.29*02
$GPGSV,4,1,16,05,00,315,,07,54,310,47,08,67,161,48,09,48,232,47*78
$GPGSV,4,2,16,11,15,171,37,16,25,062,35,18,07,150,34,21,03,029,*7B
$GPGSV,4,3,16,23,26,189,47,26,00,073,,27,53,061,45,28,11,256,25*76
$GPGSV,4,4,16,30,28,304,26,46,23,237,35,48,20,240,35,51,35,213,43*7C
$GPGLL,4239.49221,N,08314.60610,W,192141.00,A,D*7F
$GPRMC,192142.00,A,4239.49221,N,08314.60533,W,2.184,87.39,050418,,,D*4B
$GPVTG,87.39,T,,M,2.184,N,4.046,K,D*04
$GPGGA,192142.00,4239.49221,N,08314.60533,W,2,10,0.86,287.8,M,-34.9,M,,0000*64
$GPGSA,A,3,08,27,09,07,23,16,30,11,28,18,,,1.55,0.86,1.29*02
$GPGSV,4,1,16,05,00,315,,07,54,310,47,08,67,161,49,09,48,232,46*78
$GPGSV,4,2,16,11,15,171,24,16,25,062,32,18,07,150,37,21,03,029,*7D
$GPGSV,4,3,16,23,26,189,46,26,00,073,,27,53,061,44,28,11,256,26*75
$GPGSV,4,4,16,30,28,304,26,46,23,237,37,48,20,240,36,51,35,213,42*7C
$GPGLL,4239.49221,N,08314.60533,W,192142.00,A,D*7E
$GPRMC,192143.00,A,4239.49209,N,08314.60470,W,2.062,89.07,050418,,,D*4C
$GPVTG,89.07,T,,M,2.062,N,3.819,K,D*0B
$GPGGA,192143.00,4239.49209,N,08314.60470,W,2,10,0.86,287.3,M,-34.9,M,,0000*62
$GPGSA,A,3,08,27,09,07,23,16,30,11,28,18,,,1.55,0.86,1.29*02
$GPGSV,4,1,16,05,00,315,,07,54,310,46,08,67,161,51,09,48,232,46*70
$GPGSV,4,2,16,11,15,171,31,16,25,062,35,18,07,150,30,21,03,029,*79
$GPGSV,4,3,16,23,26,189,44,26,00,073,,27,53,061,45,28,11,256,25*75
$GPGSV,4,4,16,30,28,304,25,46,23,237,32,48,20,240,38,51,35,213,43*75
$GPGLL,4239.49209,N,08314.60470,W,192143.00,A,D*73
$GPRMC,192144.00,A,4239.49196,N,08314.60397,W,2.024,90.22,050418,,,D*4D
$GPVTG,90.22,T,,M,2.024,N,3.749,K,D*0C
$GPGGA,192144.00,4239.49196,N,08314.60397,W,2,10,0.86,287.2,M,-34.9,M,,0000*6F
$GPGSA,A,3,08,27,09,07,23,16,30,11,28,18,,,1.55,0.86,1.29*02
$GPGSV,4,1,16,05,00,315,,07,54,310,43,08,67,161,44,09,48,232,42*75
$GPGSV,4,2,16,11,15,171,34,16,25,062,26,18,07,150,31,21,03,029,*7F
$GPGSV,4,3,16,23,26,189,38,26,00,073,,27,53,061,38,28,11,256,24*75
$GPGSV,4,4,16,30,28,304,25,46,23,237,35,48,20,240,31,51,35,213,40*78
$GPGLL,4239.49196,N,08314.60397,W,192144.00,A,D*7F
$GPRMC,192145.00,A,4239.49181,N,08314.60319,W,2.113,93.67,050418,,,D*4B
$GPVTG,93.67,T,,M,2.113,N,3.914,K,D*0D
$GPGGA,192145.00,4239.49181,N,08314.60319,W,2,10,0.86,286.4,M,-34.9,M,,0000*69
$GPGSA,A,3,08,27,09,07,23,16,30,11,28,18,,,1.55,0.86,1.29*02
$GPGSV,4,1,16,05,00,315,,07,54,310,47,08,67,161,50,09,48,232,46*70
$GPGSV,4,2,16,11,15,171,41,16,25,062,31,18,07,150,29,21,03,029,*72
$GPGSV,4,3,16,23,26,189,47,26,00,073,,27,53,061,46,28,11,256,23*73
$GPGSV,4,4,16,30,28,304,25,46,23,237,34,48,20,240,37,51,35,213,41*7E
$GPGLL,4239.49181,N,08314.60319,W,192145.00,A,D*7E
$GPRMC,192146.00,A,4239.49174,N,08314.60242,W,2.173,91.71,050418,,,D*4E
$GPVTG,91.71,T,,M,2.173,N,4.024,K,D*03
$GPGGA,192146.00,4239.49174,N,08314.60242,W,2,10,0.86,286.9,M,-34.9,M,,0000*62
$GPGSA,A,3,08,27,09,07,23,16,30,11,28,18,,,1.55,0.86,1.29*02
$GPGSV,4,1,16,05,00,315,,07,54,310,45,08,67,161,47,09,48,232,46*74
$GPGSV,4,2,16,11,15,171,35,16,25,062,35,18,07,150,29,21,03,029,*75
$GPGSV,4,3,16,23,26,189,42,26,00,073,,27,53,061,45,28,11,256,25*73
$GPGSV,4,4,16,30,28,304,26,46,23,237,41,48,20,240,36,51,35,213,44*7B
$GPGLL,4239.49174,N,08314.60242,W,192146.00,A,D*78
$GPRMC,192147.00,A,4239.49176,N,08314.60156,W,2.207,89.92,050418,,,D*4F
$GPVTG,89.92,T,,M,2.207,N,4.087,K,D*0E
$GPGGA,192147.00,4239.49176,N,08314.60156,W,2,10,0.86,286.6,M,-34.9,M,,0000*68
$GPGSA,A,3,08,27,09,07,23,16,30,11,28,18,,,1.55,0.86,1.29*02
$GPGSV,4,1,16,05,00,315,,07,55,310,49,08,67,161,48,09,48,232,46*76
$GPGSV,4,2,16,11,15,171,37,16,25,062,40,18,07,150,40,21,03,029,*7A
$GPGSV,4,3,16,23,26,189,46,26,00,073,,27,53,061,43,28,11,256,26*72
$GPGSV,4,4,16,30,28,304,31,46,23,237,36,48,20,240,33,51,35,213,42*7E
$GPGLL,4239.49176,N,08314.60156,W,192147.00,A,D*7D
$GPRMC,192148.00,A,4239.49184,N,08314.60084,W,1.775,88.91,050418,,,D*42
$GPVTG,88.91,T,,M,1.775,N,3.287,K,D*0A
$GPGGA,192148.00,4239.49184,N,08314.60084,W,2,10,0.86,286.4,M,-34.9,M,,0000*66
$GPGSA,A,3,08,27,09,07,23,16,30,11,28,18,,,1.55,0.86,1.29*02
$GPGSV,4,1,16,05,00,315,,07,55,310,46,08,67,160,47,09,48,232,43*72
$GPGSV,4,2,16,11,15,171,27,16,25,062,28,18,07,150,32,21,03,029,*70
$GPGSV,4,3,16,23,26,189,42,26,00,073,,27,53,061,41,28,11,256,26*74
$GPGSV,4,4,16,30,28,304,24,46,23,237,37,48,20,240,33,51,35,213,40*79
$GPGLL,4239.49184,N,08314.60084,W,192148.00,A,D*71
$GPRMC,192149.00,A,4239.49190,N,08314.60012,W,1.997,89.98,050418,,,D*43
$GPVTG,89.98,T,,M,1.997,N,3.698,K,D*0A
$GPGGA,192149.00,4239.49190,N,08314.60012,W,2,10,0.86,286.3,M,-34.9,M,,0000*6A
$GPGSA,A,3,08,27,09,07,23,16,30,11,28,18,,,1.55,0.86,1.29*02
$GPGSV,4,1,16,05,00,315,,07,55,310,44,08,67,160,48,09,47,231,45*75
$GPGSV,4,2,16,11,15,171,37,16,25,062,33,18,07,150,25,21,03,029,*7D
$GPGSV,4,3,16,23,26,189,41,26,00,073,,27,53,061,44,28,11,256,27*73
$GPGSV,4,4,16,30,28,304,24,46,23,237,39,48,20,240,34,51,35,213,45*75
$GPGLL,4239.49190,N,08314.60012,W,192149.00,A,D*7A
$GPRMC,192150.00,A,4239.49192,N,08314.59930,W,1.991,92.73,050418,,,D*43
$GPVTG,92.73,T,,M,1.991,N,3.687,K,D*0D
$GPGGA,192150.00,4239.49192,N,08314.59930,W,2,10,0.86,286.0,M,-34.9,M,,0000*60
$GPGSA,A,3,08,27,09,07,23,16,30,11,28,18,,,1.55,0.86,1.29*02
$GPGSV,4,1,16,05,00,315,,07,55,310,43,08,67,160,49,09,47,231,45*73
$GPGSV,4,2,16,11,15,171,36,16,25,062,33,18,07,150,31,21,03,029,*79
$GPGSV,4,3,16,23,26,189,46,26,00,073,,27,53,061,44,28,11,256,31*73
$GPGSV,4,4,16,30,28,304,25,46,23,237,39,48,20,240,36,51,35,213,40*73
$GPGLL,4239.49192,N,08314.59930,W,192150.00,A,D*73
$GPRMC,192151.00,A,4239.49198,N,08314.59849,W,1.821,86.66,050418,,,D*4C
$GPVTG,86.66,T,,M,1.821,N,3.373,K,D*08
$GPGGA,192151.00,4239.49198,N,08314.59849,W,2,10,0.86,285.1,M,-34.9,M,,0000*66
$GPGSA,A,3,08,27,09,07,23,16,30,11,28,18,,,1.55,0.86,1.29*02
$GPGSV,4,1,16,05,00,315,,07,55,310,44,08,67,160,49,09,47,231,44*75
$GPGSV,4,2,16,11,15,171,39,16,25,062,38,18,07,150,30,21,03,029,*7C
$GPGSV,4,3,16,23,26,189,42,26,00,073,,27,53,061,43,28,11,256,27*77
$GPGSV,4,4,16,30,28,304,26,46,23,237,39,48,20,240,37,51,35,213,41*70
$GPGLL,4239.49198,N,08314.59849,W,192151.00,A,D*77
$GPRMC,192152.00,A,4239.49215,N,08314.59768,W,1.992,84.10,050418,,,D*4F
$GPVTG,84.10,T,,M,1.992,N,3.689,K,D*02
$GPGGA,192152.00,4239.49215,N,08314.59768,W,2,10,0.86,284.9,M,-34.9,M,,0000*66
$GPGSA,A,3,08,27,09,07,23,16,30,11,28,18,,,1.55,0.86,1.29*02
$GPGSV,4,1,16,05,00,315,,07,55,310,43,08,67,160,49,09,47,231,46*70
$GPGSV,4,2,16,11,15,171,39,16,25,062,33,18,07,150,30,21,03,029,*77
$GPGSV,4,3,16,23,26,189,44,26,00,073,,27,53,061,43,28,11,256,27*71
$GPGSV,4,4,16,30,28,304,27,46,23,237,38,48,20,240,37,51,35,213,43*72
$GPGLL,4239.49215,N,08314.59768,W,192152.00,A,D*7E
$GPRMC,192153.00,A,4239.49229,N,08314.59700,W,1.790,87.25,050418,,,D*46
$GPVTG,87.25,T,,M,1.790,N,3.316,K,D*08
$GPGGA,192153.00,4239.49229,N,08314.59700,W,2,10,0.86,285.7,M,-34.9,M,,0000*69
$GPGSA,A,3,08,27,09,07,23,16,30,11,28,18,,,1.55,0.86,1.29*02
$GPGSV,4,1,16,05,00,315,,07,55,310,42,08,67,160,47,09,47,231,42*7B
$GPGSV,4,2,16,11,15,171,43,16,25,062,38,18,07,150,30,21,03,029,*71
$GPGSV,4,3,16,23,26,189,45,26,00,073,,27,53,061,45,28,11,256,26*77
$GPGSV,4,4,16,30,28,304,38,46,23,237,32,48,20,240,30,51,35,213,48*7A
$GPGLL,4239.49229,N,08314.59700,W,192153.00,A,D*7E
$GPRMC,192154.00,A,4239.49228,N,08314.59622,W,1.997,86.13,050418,,,D*4C
$GPVTG,86.13,T,,M,1.997,N,3.699,K,D*07
$GPGGA,192154.00,4239.49228,N,08314.59622,W,2,10,0.86,285.9,M,-34.9,M,,0000*60
$GPGSA,A,3,08,27,09,07,23,16,30,11,28,18,,,1.55,0.86,1.29*02
$GPGSV,4,1,16,05,00,315,,07,55,310,41,08,67,160,45,09,47,231,42*7A
$GPGSV,4,2,16,11,15,171,39,16,25,062,37,18,07,150,31,21,03,029,*72
$GPGSV,4,3,16,23,26,189,39,26,00,073,,27,53,061,41,28,11,256,24*7A
$GPGSV,4,4,16,30,28,304,33,46,23,237,38,48,20,240,33,51,35,213,43*73
$GPGLL,4239.49228,N,08314.59622,W,192154.00,A,D*79
$GPRMC,192155.00,A,4239.49231,N,08314.59554,W,1.889,88.20,050418,,,D*47
$GPVTG,88.20,T,,M,1.889,N,3.498,K,D*04
$GPGGA,192155.00,4239.49231,N,08314.59554,W,2,10,0.86,286.1,M,-34.9,M,,0000*60
$GPGSA,A,3,08,27,09,07,23,16,30,11,28,18,,,1.55,0.86,1.29*02
$GPGSV,4,1,16,05,00,315,,07,55,310,42,08,67,160,47,09,47,231,41*78
$GPGSV,4,2,16,11,15,171,40,16,25,062,36,18,07,150,35,21,03,029,*79
$GPGSV,4,3,16,23,26,189,40,26,00,073,,27,53,061,41,28,11,256,22*72
$GPGSV,4,4,16,30,28,304,21,46,23,237,35,48,20,240,36,51,35,213,41*7A
$GPGLL,4239.49231,N,08314.59554,W,192155.00,A,D*72
$GPRMC,192156.00,A,4239.49230,N,08314.59479,W,1.954,89.03,050418,,,D*4A
$GPVTG,89.03,T,,M,1.954,N,3.618,K,D*0F
$GPGGA,192156.00,4239.49230,N,08314.59479,W,2,10,0.89,286.0,M,-34.9,M,,0000*62
$GPGSA,A,3,08,27,09,07,23,16,30,11,28,18,,,1.59,0.89,1.31*08
$GPGSV,4,1,16,05,00,315,,07,55,310,43,08,67,160,48,09,47,231,45*72
$GPGSV,4,2,16,11,15,171,27,16,25,062,36,18,07,150,35,21,03,029,*78
$GPGSV,4,3,16,23,26,189,44,26,00,073,,27,53,061,44,28,11,256,23*72
$GPGSV,4,4,16,30,28,304,31,46,23,237,37,48,20,240,33,51,35,213,40*7D
$GPGLL,4239.49230,N,08314.59479,W,192156.00,A,D*7E
$GPRMC,192157.00,A,4239.49232,N,08314.59391,W,2.286,88.06,050418,,,D*4B
$GPVTG,88.06,T,,M,2.286,N,4.233,K,D*06
$GPGGA,192157.00,4239.49232,N,08314.59391,W,2,10,0.90,285.7,M,-34.9,M,,0000*6C
$GPGSA,A,3,08,27,09,07,23,16,30,11,28,18,,,1.68,0.90,1.42*06
$GPGSV,4,1,16,05,00,315,,07,55,310,45,08,67,160,48,09,47,231,45*74
$GPGSV,4,2,16,11,15,171,32,16,25,062,32,18,07,150,33,21,03,029,*7E
$GPGSV,4,3,16,23,26,189,39,26,00,073,,27,53,061,43,28,11,256,25*79
$GPGSV,4,4,16,30,28,304,26,46,23,237,36,48,20,240,33,51,35,213,42*78
$GPGLL,4239.49232,N,08314.59391,W,192157.00,A,D*7C
$GPRMC,192158.00,A,4239.49233,N,08314.59303,W,1.978,86.94,050418,,,D*42
$GPVTG,86.94,T,,M,1.978,N,3.664,K,D*0B
$GPGGA,192158.00,4239.49233,N,08314.59303,W,2,10,0.86,285.5,M,-34.9,M,,0000*6C
$GPGSA,A,3,08,27,09,07,23,16,30,11,28,18,,,1.55,0.86,1.29*02
$GPGSV,4,1,16,05,00,315,,07,55,310,43,08,67,160,47,09,47,231,43*7B
$GPGSV,4,2,16,11,15,171,36,16,25,062,33,18,08,150,29,21,03,029,*7F
$GPGSV,4,3,16,23,26,189,39,26,00,073,,27,53,061,42,28,11,256,24*79
$GPGSV,4,4,16,30,28,304,32,46,23,237,39,48,20,240,37,51,35,213,43*77
$GPGLL,4239.49233,N,08314.59303,W,192158.00,A,D*79
$GPRMC,192159.00,A,4239.49231,N,08314.59218,W,2.091,87.99,050418,,,D*4B
$GPVTG,87.99,T,,M,2.091,N,3.873,K,D*02
$GPGGA,192159.00,4239.49231,N,08314.59218,W,2,10,0.86,285.3,M,-34.9,M,,0000*62
$GPGSA,A,3,08,27,09,07,23,16,30,11,28,18,,,1.55,0.86,1.29*02
$GPGSV,4,1,16,05,00,315,,07,55,310,41,08,67,160,46,09,47,231,42*79
$GPGSV,4,2,16,11,15,171,38,16,25,062,29,18,08,150,29,21,03,029,*7A
$GPGSV,4,3,16,23,26,189,43,26,00,073,,27,53,061,42,28,11,256,24*74
$GPGSV,4,4,16,30,28,304,32,46,23,237,36,48,20,240,36,51,35,213,42*78
$GPGLL,4239.49231,N,08314.59218,W,192159.00,A,D*71
$GPRMC,192200.00,A,4239.49227,N,08314.59135,W,2.181,91.57,050418,,,D*4A
$GPVTG,91.57,T,,M,2.181,N,4.040,K,D*08
$GPGGA,192200.00,4239.49227,N,08314.59135,W,2,10,0.90,285.5,M,-34.9,M,,0000*67
$GPGSA,A,3,08,27,09,07,23,16,30,11,28,18,,,1.68,0.90,1.42*06
$GPGSV,4,1,16,05,00,315,,07,55,310,44,08,67,160,47,09,47,231,44*7B
$GPGSV,4,2,16,11,15,171,35,16,25,062,37,18,08,150,28,21,03,029,*79
$GPGSV,4,3,16,23,26,189,45,26,00,073,,27,53,061,39,28,11,256,25*7F
$GPGSV,4,4,16,30,28,304,32,46,23,237,38,48,20,240,36,51,35,213,44*70
$GPGLL,4239.49227,N,08314.59135,W,192200.00,A,D*75
$GPRMC,192201.00,A,4239.49225,N,08314.59043,W,2.200,90.82,050418,,,D*4A
$GPVTG,90.82,T,,M,2.200,N,4.075,K,D*0D
$GPGGA,192201.00,4239.49225,N,08314.59043,W,2,10,0.90,285.7,M,-34.9,M,,0000*66
$GPGSA,A,3,08,27,09,07,23,16,30,11,28,18,,,1.68,0.90,1.42*06
$GPGSV,4,1,16,05,00,315,,07,55,310,45,08,67,160,47,09,47,231,44*7A
$GPGSV,4,2,16,11,15,171,36,16,25,062,37,18,08,150,27,21,03,029,*75
$GPGSV,4,3,16,23,26,189,37,26,00,073,,27,53,061,42,28,11,256,24*77
$GPGSV,4,4,16,30,28,304,26,46,23,237,37,48,20,240,36,51,35,213,39*70
$GPGLL,4239.49225,N,08314.59043,W,192201.00,A,D*76
$GPRMC,192202.00,A,4239.49227,N,08314.58957,W,2.249,89.44,050418,,,D*49
$GPVTG,89.44,T,,M,2.249,N,4.165,K,D*02
$GPGGA,192202.00,4239.49227,N,08314.58957,W,2,10,0.86,285.8,M,-34.9,M,,0000*62
$GPGSA,A,3,08,27,09,07,23,16,30,11,28,18,,,1.55,0.86,1.29*02
$GPGSV,4,1,16,05,00,315,,07,55,310,37,08,67,160,40,09,47,231,38*73
$GPGSV,4,2,16,11,15,171,21,16,25,062,25,18,08,150,26,21,03,029,*71
$GPGSV,4,3,16,23,26,189,36,26,00,073,,27,53,061,33,28,11,256,22*76
$GPGSV,4,4,16,30,28,304,24,46,23,237,30,48,20,240,27,51,35,213,32*7E
$GPGLL,4239.49227,N,08314.58957,W,192202.00,A,D*7A
$GPRMC,192203.00,A,4239.49223,N,08314.58852,W,2.457,89.46,050418,,,D*43
$GPVTG,89.46,T,,M,2.457,N,4.551,K,D*0A
$GPGGA,192203.00,4239.49223,N,08314.58852,W,2,10,0.86,286.0,M,-34.9,M,,0000*68
$GPGSA,A,3,08,27,09,07,23,16,30,11,28,18,,,1.55,0.86,1.30*0A
$GPGSV,4,1,16,05,00,315,19,07,55,310,45,08,67,160,45,09,47,231,44*70
$GPGSV,4,2,16,11,15,171,37,16,25,062,36,18,08,150,25,21,03,029,19*7F
$GPGSV,4,3,16,23,26,189,40,26,00,073,19,27,53,061,40,28,11,256,23*7A
$GPGSV,4,4,16,30,28,304,25,46,23,237,35,48,20,240,34,51,35,213,39*73
$GPGLL,4239.49223,N,08314.58852,W,192203.00,A,D*7B
$GPRMC,192204.00,A,4239.49220,N,08314.58753,W,2.185,88.29,050418,,,D*4B
$GPVTG,88.29,T,,M,2.185,N,4.046,K,D*0B
$GPGGA,192204.00,4239.49220,N,08314.58753,W,2,10,0.86,285.9,M,-34.9,M,,0000*68
$GPGSA,A,3,08,27,09,07,23,16,30,11,28,18,,,1.55,0.86,1.30*0A
$GPGSV,4,1,16,05,00,315,,07,55,310,42,08,67,160,45,09,47,231,41*7A
$GPGSV,4,2,16,11,15,171,33,16,25,062,34,18,08,150,24,21,03,029,*70
$GPGSV,4,3,16,23,26,189,29,26,00,073,,27,53,061,40,28,11,256,22*7C
$GPGSV,4,4,16,30,28,304,25,46,23,237,33,48,20,240,31,51,35,213,37*7E
$GPGLL,4239.49220,N,08314.58753,W,192204.00,A,D*71
$GPRMC,192205.00,A,4239.49207,N,08314.58663,W,2.160,89.67,050418,,,D*4D
$GPVTG,89.67,T,,M,2.160,N,4.000,K,D*09
$GPGGA,192205.00,4239.49207,N,08314.58663,W,2,10,0.86,285.2,M,-34.9,M,,0000*65
$GPGSA,A,3,08,27,09,07,23,16,30,11,28,18,,,1.55,0.86,1.30*0A
$GPGSV,4,1,16,05,00,315,,07,55,310,44,08,67,160,47,09,47,231,43*7C
$GPGSV,4,2,16,11,15,171,36,16,25,062,33,18,08,150,31,21,03,029,09*7F
$GPGSV,4,3,16,23,26,189,41,26,00,073,,27,53,061,44,28,11,256,21*75
$GPGSV,4,4,16,30,28,304,25,46,23,237,39,48,20,240,37,51,35,213,40*72
$GPGLL,4239.49207,N,08314.58663,W,192205.00,A,D*77
$GPRMC,192206.00,A,4239.49190,N,08314.58581,W,2.264,94.80,050418,,,D*4E
$GPVTG,94.80,T,,M,2.264,N,4.193,K,D*00
$GPGGA,192206.00,4239.49190,N,08314.58581,W,2,10,0.86,284.6,M,-34.9,M,,0000*61
$GPGSA,A,3,08,27,09,07,23,16,30,11,28,18,,,1.55,0.86,1.30*0A
$GPGSV,4,1,16,05,00,315,,07,55,310,44,08,67,160,48,09,47,231,43*73
$GPGSV,4,2,16,11,15,171,35,16,25,062,36,18,08,150,32,21,03,029,24*75
$GPGSV,4,3,16,23,26,189,43,26,00,074,,27,53,061,46,28,11,256,21*72
$GPGSV,4,4,16,30,28,304,26,46,23,237,39,48,20,240,32,51,35,213,39*7A
$GPGLL,4239.49190,N,08314.58581,W,192206.00,A,D*76
$GPRMC,192207.00,A,4239.49187,N,08314.58489,W,2.585,94.29,050418,,,D*4B
$GPVTG,94.29,T,,M,2.585,N,4.787,K,D*08
$GPGGA,192207.00,4239.49187,N,08314.58489,W,2,10,0.86,285.3,M,-34.9,M,,0000*6B
$GPGSA,A,3,08,27,09,07,23,16,30,11,28,18,,,1.55,0.86,1.30*0A
$GPGSV,4,1,16,05,00,315,,07,55,310,43,08,67,160,48,09,47,231,41*76
$GPGSV,4,2,16,11,15,171,36,16,25,062,38,18,08,150,32,21,03,029,22*7E
$GPGSV,4,3,16,23,26,189,46,26,00,074,,27,53,061,41,28,11,256,22*73
$GPGSV,4,4,16,30,28,304,26,46,23,237,37,48,20,240,31,51,35,213,38*76
$GPGLL,4239.49187,N,08314.58489,W,192207.00,A,D*78
$GPRMC,192208.00,A,4239.49188,N,08314.58400,W,2.305,90.15,050418,,,D*4F
$GPVTG,90.15,T,,M,2.305,N,4.270,K,D*00
$GPGGA,192208.00,4239.49188,N,08314.58400,W,2,10,0.86,285.0,M,-34.9,M,,0000*69
$GPGSA,A,3,08,27,09,07,23,16,30,11,28,18,,,1.55,0.86,1.30*0A
$GPGSV,4,1,16,05,00,315,,07,55,310,46,08,67,160,50,09,47,231,42*79
$GPGSV,4,2,16,11,15,171,38,16,25,062,36,18,08,150,29,21,03,029,22*74
$GPGSV,4,3,16,23,26,189,37,26,00,074,,27,53,061,44,28,11,256,24*76
$GPGSV,4,4,16,30,28,304,26,46,23,237,41,48,20,240,39,51,35,213,41*71
$GPGLL,4239.49188,N,08314.58400,W,192208.00,A,D*79
$GPRMC,192209.00,A,4239.49191,N,08314.58324,W,2.245,89.52,050418,,,D*49
$GPVTG,89.52,T,,M,2.245,N,4.158,K,D*07
$GPGGA,192209.00,4239.49191,N,08314.58324,W,2,10,0.90,285.4,M,-34.9,M,,0000*62
$GPGSA,A,3,08,27,09,07,23,16,30,11,28,18,,,1.68,0.90,1.42*06
$GPGSV,4,1,16,05,00,315,,07,55,310,47,08,67,160,50,09,47,231,44*7E
$GPGSV,4,2,16,11,15,171,42,16,25,062,37,18,08,150,27,21,03,029,29*7D
$GPGSV,4,3,16,23,26,189,35,26,00,074,,27,53,061,40,28,11,256,25*71
$GPGSV,4,4,16,30,28,304,25,46,23,237,40,48,20,240,35,51,35,213,44*7A
$GPGLL,4239.49191,N,08314.58324,W,192209.00,A,D*71
$GPRMC,192210.00,A,4239.49197,N,08314.58233,W,2.456,88.04,050418,,,D*46
$GPVTG,88.04,T,,M,2.456,N,4.549,K,D*05
$GPGGA,192210.00,4239.49197,N,08314.58233,W,2,10,0.90,285.3,M,-34.9,M,,0000*6C
$GPGSA,A,3,08,27,09,07,23,16,30,11,28,18,,,1.68,0.90,1.42*06
$GPGSV,4,1,16,05,00,315,,07,55,310,46,08,67,160,48,09,47,231,44*76
$GPGSV,4,2,16,11,15,171,34,16,25,062,35,18,08,150,27,21,03,029,22*75
$GPGSV,4,3,16,23,26,189,42,26,00,074,,27,53,061,43,28,11,256,26*71
$GPGSV,4,4,16,30,28,304,25,46,23,237,37,48,20,240,35,51,35,213,40*7E
$GPGLL,4239.49197,N,08314.58233,W,192210.00,A,D*78
$GPRMC,192211.00,A,4239.49201,N,08314.58129,W,2.449,87.52,050418,,,D*41
$GPVTG,87.52,T,,M,2.449,N,4.536,K,D*0F
$GPGGA,192211.00,4239.49201,N,08314.58129,W,2,10,0.89,285.1,M,-34.9,M,,0000*63
$GPGSA,A,3,08,27,09,07,23,16,30,11,28,18,,,1.59,0.89,1.31*08
$GPGSV,4,1,16,05,00,315,,07,55,310,47,08,67,160,49,09,47,231,46*74
$GPGSV,4,2,16,11,15,171,33,16,25,062,38,18,08,150,32,21,03,029,25*7C
$GPGSV,4,3,16,23,26,189,42,26,00,074,,27,53,061,43,28,11,256,27*70
$GPGSV,4,4,16,30,28,304,30,46,23,237,40,48,20,240,32,51,35,213,42*7F
$GPGLL,4239.49201,N,08314.58129,W,192211.00,A,D*7D
$GPRMC,192212.00,A,4239.49200,N,08314.58033,W,2.274,88.72,050418,,,D*4C
$GPVTG,88.72,T,,M,2.274,N,4.211,K,D*08
$GPGGA,192212.00,4239.49200,N,08314.58033,W,2,10,0.86,285.0,M,-34.9,M,,0000*65
$GPGSA,A,3,08,27,09,07,23,16,30,11,28,18,,,1.55,0.86,1.30*0A
$GPGSV,4,1,16,05,00,315,,07,55,310,43,08,67,160,48,09,47,231,40*77
$GPGSV,4,2,16,11,15,171,39,16,25,062,35,18,08,150,35,21,03,029,23*7A
$GPGSV,4,3,16,23,26,189,39,26,00,074,,27,53,061,42,28,11,256,27*7D
$GPGSV,4,4,16,30,28,304,28,46,23,237,35,48,20,240,35,51,35,213,40*71
$GPGLL,4239.49200,N,08314.58033,W,192212.00,A,D*75
$GPRMC,192213.00,A,4239.49191,N,08314.57935,W,2.363,91.86,050418,,,D*42
$GPVTG,91.86,T,,M,2.363,N,4.376,K,D*0C
$GPGGA,192213.00,4239.49191,N,08314.57935,W,2,10,0.90,284.5,M,-34.9,M,,0000*6C
$GPGSA,A,3,08,27,09,07,23,16,30,11,28,18,,,1.68,0.90,1.42*06
$GPGSV,4,1,16,05,00,315,,07,55,310,47,08,67,160,47,09,47,231,45*79
$GPGSV,4,2,16,11,15,171,41,16,25,062,36,18,08,150,26,21,03,029,23*74
$GPGSV,4,3,16,23,26,189,41,26,00,074,,27,53,061,42,28,11,256,27*72
$GPGSV,4,4,16,30,28,304,27,46,23,237,38,48,20,240,33,51,35,213,42*77
$GPGLL,4239.49191,N,08314.57935,W,192213.00,A,D*7F
$GPRMC,192214.00,A,4239.49187,N,08314.57855,W,1.705,93.27,050418,,,D*4B
$GPVTG,93.27,T,,M,1.705,N,3.158,K,D*0B
$GPGGA,192214.00,4239.49187,N,08314.57855,W,2,10,0.86,284.3,M,-34.9,M,,0000*6A
$GPGSA,A,3,08,27,09,07,23,16,30,11,28,18,,,1.55,0.86,1.30*0A
$GPGSV,4,1,16,05,00,315,,07,55,310,42,08,67,160,47,09,47,231,44*7D
$GPGSV,4,2,16,11,15,171,32,16,25,062,38,18,08,150,31,21,03,029,25*7E
$GPGSV,4,3,16,23,26,189,38,26,00,074,,27,53,061,44,28,11,256,27*7A
$GPGSV,4,4,16,30,28,304,32,46,23,237,37,48,20,240,34,51,35,213,39*77
$GPGLL,4239.49187,N,08314.57855,W,192214.00,A,D*78
$GPRMC,192215.00,A,4239.49193,N,08314.57778,W,1.968,88.27,050418,,,D*40
$GPVTG,88.27,T,,M,1.968,N,3.645,K,D*0F
$GPGGA,192215.00,4239.49193,N,08314.57778,W,2,10,0.86,284.1,M,-34.9,M,,0000*6C
$GPGSA,A,3,08,27,09,07,23,16,30,11,28,18,,,1.55,0.86,1.30*0A
$GPGSV,4,1,16,05,00,315,,07,55,310,45,08,67,160,41,09,47,231,43*7B
$GPGSV,4,2,16,11,15,171,31,16,25,062,35,18,08,150,30,21,03,029,25*71
$GPGSV,4,3,16,23,26,189,36,26,00,074,,27,53,061,41,28,11,256,27*71
$GPGSV,4,4,16,30,28,304,24,46,23,237,37,48,20,240,35,51,35,213,39*71
$GPGLL,4239.49193,N,08314.57778,W,192215.00,A,D*7C
$GPRMC,192216.00,A,4239.49196,N,08314.57685,W,2.590,87.09,050418,,,D*4E
$GPVTG,87.09,T,,M,2.590,N,4.797,K,D*0D
$GPGGA,192216.00,4239.49196,N,08314.57685,W,2,10,0.86,284.1,M,-34.9,M,,0000*69
$GPGSA,A,3,08,27,09,07,23,16,30,11,28,18,,,1.55,0.86,1.30*0A
$GPGSV,4,1,16,05,00,315,,07,55,310,44,08,67,160,48,09,47,231,40*70
$GPGSV,4,2,16,11,15,171,37,16,25,062,35,18,08,150,24,21,03,029,26*71
$GPGSV,4,3,16,23,26,189,42,26,00,074,,27,53,061,44,28,11,256,29*79
$GPGSV,4,4,16,30,28,304,31,46,23,237,34,48,20,240,30,51,35,213,28*73
$GPGLL,4239.49196,N,08314.57685,W,192216.00,A,D*79
$GPRMC,192217.00,A,4239.49206,N,08314.57589,W,2.540,86.47,050418,,,D*4C
$GPVTG,86.47,T,,M,2.540,N,4.704,K,D*01
$GPGGA,192217.00,4239.49206,N,08314.57589,W,2,10,0.86,283.8,M,-34.9,M,,0000*63
$GPGSA,A,3,08,27,09,07,23,16,30,11,28,18,,,1.55,0.86,1.30*0A
$GPGSV,4,1,16,05,00,315,,07,55,310,46,08,67,160,49,09,47,231,34*70
$GPGSV,4,2,16,11,15,171,33,16,25,062,34,18,08,150,30,21,03,029,24*73
$GPGSV,4,3,16,23,26,189,45,26,00,074,,27,53,061,46,28,11,256,27*72
$GPGSV,4,4,16,30,28,304,26,46,23,237,30,48,20,240,34,51,35,213,39*75
$GPGLL,4239.49206,N,08314.57589,W,192217.00,A,D*7D
$GPRMC,192218.00,A,4239.49211,N,08314.57494,W,2.360,86.34,050418,,,D*48
$GPVTG,86.34,T,,M,2.360,N,4.371,K,D*07
$GPGGA,192218.00,4239.49211,N,08314.57494,W,2,10,0.86,283.1,M,-34.9,M,,0000*6E
$GPGSA,A,3,08,27,09,07,23,16,30,11,28,18,,,1.55,0.86,1.30*0A
$GPGSV,4,1,16,05,00,315,,07,55,310,46,08,67,160,49,09,47,231,38*7C
$GPGSV,4,2,16,11,15,171,38,16,25,062,33,18,08,150,33,21,03,029,22*7A
$GPGSV,4,3,16,23,26,189,42,26,00,074,,27,53,061,42,28,11,256,26*70
$GPGSV,4,4,16,30,28,304,25,46,23,237,29,48,20,240,33,51,35,213,43*74
$GPGLL,4239.49211,N,08314.57494,W,192218.00,A,D*79
$GPRMC,192219.00,A,4239.49212,N,08314.57405,W,2.432,88.57,050418,,,D*49
$GPVTG,88.57,T,,M,2.432,N,4.504,K,D*08
$GPGGA,192219.00,4239.49212,N,08314.57405,W,2,10,0.86,283.0,M,-34.9,M,,0000*65
$GPGSA,A,3,08,27,09,07,23,16,30,11,28,18,,,1.55,0.86,1.30*0A
$GPGSV,4,1,16,05,00,315,,07,55,310,45,08,67,160,47,09,47,231,42*7C
$GPGSV,4,2,16,11,15,171,36,16,25,062,30,18,08,150,20,21,03,029,20*77
$GPGSV,4,3,16,23,26,189,41,26,00,074,,27,53,061,38,28,11,256,25*7D
$GPGSV,4,4,16,30,28,304,23,46,23,237,33,48,20,240,30,51,35,213,38*76
$GPGLL,4239.49212,N,08314.57405,W,192219.00,A,D*73
$GPRMC,192220.00,A,4239.49213,N,08314.57313,W,2.432,90.02,050418,,,D*4B
$GPVTG,90.02,T,,M,2.432,N,4.504,K,D*01
$GPGGA,192220.00,4239.49213,N,08314.57313,W,2,10,0.90,283.0,M,-34.9,M,,0000*69
$GPGSA,A,3,08,27,09,07,23,16,30,11,28,18,,,1.68,0.90,1.42*06
$GPGSV,4,1,16,05,00,315,,07,55,310,43,08,67,160,48,09,47,231,45*72
$GPGSV,4,2,16,11,15,171,36,16,25,062,31,18,08,150,21,21,03,029,20*77
$GPGSV,4,3,16,23,26,189,40,26,00,074,,27,53,061,39,28,11,256,24*7C
$GPGSV,4,4,16,30,28,304,22,46,23,237,38,48,20,240,34,51,35,213,40*77
$GPGLL,4239.49213,N,08314.57313,W,192220.00,A,D*78
$GPRMC,192221.00,A,4239.49208,N,08314.57212,W,2.661,92.74,050418,,,D*47
$GPVTG,92.74,T,,M,2.661,N,4.928,K,D*04
$GPGGA,192221.00,4239.49208,N,08314.57212,W,2,10,0.90,282.5,M,-34.9,M,,0000*66
$GPGSA,A,3,08,27,09,07,23,16,30,11,28,18,,,1.68,0.90,1.42*06
$GPGSV,4,1,16,05,00,315,,07,55,310,44,08,67,160,50,09,47,231,41*78
$GPGSV,4,2,16,11,15,171,33,16,25,062,31,18,08,150,21,21,03,029,22*70
$GPGSV,4,3,16,23,26,189,42,26,00,074,,27,53,061,44,28,11,256,22*72
$GPGSV,4,4,16,30,28,304,30,46,23,237,38,48,20,240,35,51,35,213,44*71
$GPGLL,4239.49208,N,08314.57212,W,192221.00,A,D*73
$GPRMC,192222.00,A,4239.49206,N,08314.57114,W,2.445,91.80,050418,,,D*43
$GPVTG,91.80,T,,M,2.445,N,4.527,K,D*0B
$GPGGA,192222.00,4239.49206,N,08314.57114,W,2,10,0.86,281.9,M,-34.9,M,,0000*66
$GPGSA,A,3,08,27,09,07,23,16,30,11,28,18,,,1.55,0.86,1.30*0A
$GPGSV,4,1,16,05,00,315,,07,55,310,44,08,67,160,47,09,47,231,42*7D
$GPGSV,4,2,16,11,15,171,35,16,25,062,34,18,08,150,31,21,03,029,21*71
$GPGSV,4,3,16,23,26,189,42,26,00,074,,27,53,061,42,28,11,256,23*75
$GPGSV,4,4,16,30,28,304,30,46,23,237,36,48,20,240,37,51,35,213,41*78
$GPGLL,4239.49206,N,08314.57114,W,192222.00,A,D*7B
$GPRMC,192223.00,A,4239.49207,N,08314.57022,W,2.318,90.56,050418,,,D*42
$GPVTG,90.56,T,,M,2.318,N,4.293,K,D*06
$GPGGA,192223.00,4239.49207,N,08314.57022,W,2,09,0.97,281.6,M,-34.9,M,,0000*65
$GPGSA,A,3,08,27,09,07,23,16,11,28,18,,,,1.67,0.97,1.36*0E
$GPGSV,4,1,16,05,00,315,,07,55,310,42,08,67,160,47,09,47,231,43*7A
$GPGSV,4,2,16,11,15,171,35,16,25,062,36,18,08,150,30,21,03,029,20*73
$GPGSV,4,3,16,23,26,189,42,26,00,074,,27,53,061,40,28,11,256,25*71
$GPGSV,4,4,16,30,28,304,21,46,23,237,36,48,20,240,37,51,35,213,39*77
$GPGLL,4239.49207,N,08314.57022,W,192223.00,A,D*7F
$GPRMC,192224.00,A,4239.49205,N,08314.56938,W,2.341,91.87,050418,,,D*45
$GPVTG,91.87,T,,M,2.341,N,4.335,K,D*0A
$GPGGA,192224.00,4239.49205,N,08314.56938,W,2,09,0.97,281.5,M,-34.9,M,,0000*60
$GPGSA,A,3,08,27,09,07,23,16,11,28,18,,,,1.67,0.97,1.36*0E
$GPGSV,4,1,16,05,00,315,,07,55,310,43,08,67,160,47,09,47,231,43*7B
$GPGSV,4,2,16,11,15,171,37,16,25,062,34,18,08,150,28,21,03,029,21*7B
$GPGSV,4,3,16,23,26,189,38,26,00,074,,27,53,061,38,28,11,256,23*75
$GPGSV,4,4,16,30,28,304,20,46,23,237,35,48,20,240,33,51,35,213,39*71
$GPGLL,4239.49205,N,08314.56938,W,192224.00,A,D*79
$GPRMC,192225.00,A,4239.49208,N,08314.56841,W,2.555,88.71,050418,,,D*44
$GPVTG,88.71,T,,M,2.555,N,4.732,K,D*0B
$GPGGA,192225.00,4239.49208,N,08314.56841,W,2,10,0.85,281.2,M,-34.9,M,,0000*6F
$GPGSA,A,3,08,27,09,07,23,16,30,11,28,18,,,1.55,0.85,1.30*09
$GPGSV,4,1,16,05,00,315,,07,55,310,45,08,67,160,47,09,47,231,43*7D
$GPGSV,4,2,16,11,15,171,35,16,25,062,37,18,08,150,26,21,03,029,21*74
$GPGSV,4,3,16,23,26,189,42,26,00,074,,27,53,061,42,28,11,256,24*72
$GPGSV,4,4,16,30,28,304,20,46,23,237,38,48,20,240,36,51,35,213,39*79
$GPGLL,4239.49208,N,08314.56841,W,192225.00,A,D*7A
$GPRMC,192226.00,A,4239.49212,N,08314.56739,W,2.555,87.49,050418,,,D*48
$GPVTG,87.49,T,,M,2.555,N,4.732,K,D*0F
$GPGGA,192226.00,4239.49212,N,08314.56739,W,2,10,0.85,281.0,M,-34.9,M,,0000*65
$GPGSA,A,3,08,27,09,07,23,16,30,11,28,18,,,1.55,0.85,1.30*09
$GPGSV,4,1,16,05,00,315,,07,55,310,44,08,67,160,48,09,47,231,44*74
$GPGSV,4,2,16,11,15,171,38,16,25,062,37,18,08,150,26,21,03,029,30*79
$GPGSV,4,3,16,23,26,189,42,26,00,074,,27,53,061,44,28,11,256,26*76
$GPGSV,4,4,16,30,28,304,21,46,23,237,36,48,20,240,35,51,35,213,40*7B
$GPGLL,4239.49212,N,08314.56739,W,192226.00,A,D*72
$GPRMC,192227.00,A,4239.49213,N,08314.56641,W,2.456,86.89,050418,,,D*49
$GPVTG,86.89,T,,M,2.456,N,4.548,K,D*0F
$GPGGA,192227.00,4239.49213,N,08314.56641,W,2,10,0.85,280.9,M,-34.9,M,,0000*63
$GPGSA,A,3,08,27,09,07,23,16,30,11,28,18,,,1.55,0.85,1.30*09
$GPGSV,4,1,16,05,00,315,,07,55,310,45,08,67,160,47,09,47,231,43*7D
$GPGSV,4,2,16,11,15,171,32,16,25,062,37,18,08,150,26,21,03,029,28*7A
$GPGSV,4,3,16,23,26,189,41,26,00,074,,27,53,061,40,28,11,256,28*7F
$GPGSV,4,4,16,30,28,304,21,46,23,237,35,48,20,240,33,51,35,213,39*70
$GPGLL,4239.49213,N,08314.56641,W,192227.00,A,D*7C
$GPRMC,192228.00,A,4239.49217,N,08314.56550,W,2.410,87.02,050418,,,D*41
$GPVTG,87.02,T,,M,2.410,N,4.464,K,D*00
$GPGGA,192228.00,4239.49217,N,08314.56550,W,2,10,0.85,280.8,M,-34.9,M,,0000*6A
$GPGSA,A,3,08,27,09,07,23,16,30,11,28,18,,,1.55,0.85,1.30*09
$GPGSV,4,1,16,05,00,315,,07,55,310,37,08,67,160,41,09,47,231,35*7F
$GPGSV,4,2,16,11,15,171,27,16,25,062,31,18,08,150,24,21,03,029,15*74
$GPGSV,4,3,16,23,26,189,34,26,00,074,,27,53,061,33,28,11,256,27*76
$GPGSV,4,4,16,30,28,304,20,46,23,237,,48,20,240,28,51,35,213,31*75
$GPGLL,4239.49217,N,08314.56550,W,192228.00,A,D*74
$GPRMC,192229.00,A,4239.49215,N,08314.56451,W,2.645,90.75,050418,,,D*46
$GPVTG,90.75,T,,M,2.645,N,4.899,K,D*0A
$GPGGA,192229.00,4239.49215,N,08314.56451,W,2,10,0.85,280.7,M,-34.9,M,,0000*66
$GPGSA,A,3,08,27,09,07,23,16,30,11,28,18,,,1.55,0.85,1.30*09
$GPGSV,4,1,16,05,00,315,,07,55,310,42,08,67,160,46,09,47,231,41*79
$GPGSV,4,2,16,11,15,171,38,16,25,062,34,18,08,150,30,21,03,029,17*78
$GPGSV,4,3,16,23,26,189,39,26,00,074,,27,53,061,37,28,11,256,28*70
$GPGSV,4,4,16,30,28,304,22,46,23,237,,48,20,240,33,51,35,213,41*7A
$GPGLL,4239.49215,N,08314.56451,W,192229.00,A,D*77
$GPRMC,192230.00,A,4239.49216,N,08314.56356,W,2.505,89.88,050418,,,D*40
$GPVTG,89.88,T,,M,2.505,N,4.640,K,D*0D
$GPGGA,192230.00,4239.49216,N,08314.56356,W,2,10,0.85,280.6,M,-34.9,M,,0000*6C
$GPGSA,A,3,08,27,09,07,23,16,30,11,28,18,,,1.55,0.85,1.30*09
$GPGSV,4,1,16,05,00,315,,07,55,310,35,08,67,160,38,09,47,231,34*72
$GPGSV,4,2,16,11,15,171,31,16,25,062,29,18,08,150,20,21,03,029,17*7C
$GPGSV,4,3,16,23,26,189,32,26,00,074,,27,53,061,34,28,11,256,27*77
$GPGSV,4,4,16,30,28,304,22,46,23,237,,48,20,240,30,51,35,213,33*7C
$GPGLL,4239.49216,N,08314.56356,W,192230.00,A,D*7C
$GPRMC,192231.00,A,4239.49214,N,08314.56255,W,2.558,90.69,050418,,,D*4E
$GPVTG,90.69,T,,M,2.558,N,4.737,K,D*03
$GPGGA,192231.00,4239.49214,N,08314.56255,W,2,10,0.85,280.7,M,-34.9,M,,0000*6C
$GPGSA,A,3,08,27,09,07,23,16,30,11,28,18,,,1.55,0.85,1.30*09
$GPGSV,4,1,16,05,00,315,,07,55,310,44,08,67,160,47,09,47,231,42*7D
$GPGSV,4,2,16,11,15,171,37,16,25,062,38,18,08,150,20,21,03,029,20*7E
$GPGSV,4,3,16,23,26,189,39,26,00,074,,27,53,061,41,28,11,256,26*7F
$GPGSV,4,4,16,30,28,304,28,46,23,237,39,48,20,240,34,51,35,213,43*7F
$GPGLL,4239.49214,N,08314.56255,W,192231.00,A,D*7D
$GPRMC,192232.00,A,4239.49213,N,08314.56157,W,2.464,89.33,050418,,,D*42
$GPVTG,89.33,T,,M,2.464,N,4.564,K,D*0E
$GPGGA,192232.00,4239.49213,N,08314.56157,W,2,10,0.85,280.6,M,-34.9,M,,0000*68
$GPGSA,A,3,08,27,09,07,23,16,30,11,28,18,,,1.56,0.85,1.30*0A
$GPGSV,4,1,16,05,00,315,,07,55,310,42,08,68,160,45,09,47,231,40*74
$GPGSV,4,2,16,11,15,171,26,16,25,062,36,18,08,150,20,21,03,029,19*7A
$GPGSV,4,3,16,23,26,189,34,26,00,074,,27,53,061,37,28,11,256,27*72
$GPGSV,4,4,16,30,28,304,27,46,23,237,34,48,20,240,34,51,35,213,36*7F
$GPGLL,4239.49213,N,08314.56157,W,192232.00,A,D*78
$GPRMC,192233.00,A,4239.49205,N,08314.56075,W,2.370,92.63,050418,,,D*48
$GPVTG,92.63,T,,M,2.370,N,4.390,K,D*0E
$GPGGA,192233.00,4239.49205,N,08314.56075,W,2,10,0.85,280.6,M,-34.9,M,,0000*6F
$GPGSA,A,3,08,27,09,07,23,16,30,11,28,18,,,1.56,0.85,1.30*0A
$GPGSV,4,1,16,05,00,315,,07,55,310,45,08,68,160,49,09,47,231,45*7A
$GPGSV,4,2,16,11,15,171,26,16,25,062,36,18,08,150,28,21,03,029,17*7C
$GPGSV,4,3,16,23,26,189,44,26,00,074,,27,53,061,41,28,11,256,26*75
$GPGSV,4,4,16,30,28,304,26,46,23,237,34,48,20,240,29,51,35,213,40*73
$GPGLL,4239.49205,N,08314.56075,W,192233.00,A,D*7F
$GPRMC,192234.00,A,4239.49201,N,08314.55983,W,2.234,91.10,050418,,,D*4E
$GPVTG,91.10,T,,M,2.234,N,4.138,K,D*08
$GPGGA,192234.00,4239.49201,N,08314.55983,W,2,10,0.85,280.4,M,-34.9,M,,0000*6D
$GPGSA,A,3,08,27,09,07,23,16,30,11,28,18,,,1.56,0.85,1.30*0A
$GPGSV,4,1,16,05,00,315,,07,55,310,43,08,68,160,43,09,47,231,40*73
$GPGSV,4,2,16,11,15,171,35,16,25,062,33,18,08,150,29,21,03,029,16*7B
$GPGSV,4,3,16,23,26,189,38,26,00,074,,27,53,061,37,28,11,256,23*7A
$GPGSV,4,4,16,30,28,304,24,46,23,237,33,48,20,240,29,51,35,213,37*76
$GPGLL,4239.49201,N,08314.55983,W,192234.00,A,D*7F
$GPRMC,192235.00,A,4239.49218,N,08314.55918,W,1.741,70.68,050418,,,D*41
$GPVTG,70.68,T,,M,1.741,N,3.224,K,D*05
$GPGGA,192235.00,4239.49218,N,08314.55918,W,2,10,0.85,280.2,M,-34.9,M,,0000*60
$GPGSA,A,3,08,27,09,07,23,16,30,11,28,18,,,1.56,0.85,1.30*0A
$GPGSV,4,1,16,05,00,315,,07,55,310,49,08,68,160,46,09,47,231,27*7D
$GPGSV,4,2,16,11,15,171,32,16,25,062,27,18,08,150,18,21,03,029,15*78
$GPGSV,4,3,16,23,26,189,33,26,00,074,,27,53,061,35,28,11,256,29*79
$GPGSV,4,4,16,30,28,304,43,46,23,237,27,48,20,240,27,51,35,213,36*7D
$GPGLL,4239.49218,N,08314.55918,W,192235.00,A,D*74
$GPRMC,192236.00,A,4239.49266,N,08314.55876,W,2.330,48.43,050418,,,D*41
$GPVTG,48.43,T,,M,2.330,N,4.316,K,D*01
$GPGGA,192236.00,4239.49266,N,08314.55876,W,2,10,0.85,280.1,M,-34.9,M,,0000*60
$GPGSA,A,3,08,27,09,07,23,16,30,11,28,18,,,1.56,0.85,1.30*0A
$GPGSV,4,1,16,05,00,315,,07,55,310,42,08,68,160,34,09,47,231,35*70
$GPGSV,4,2,16,11,15,171,23,16,25,062,28,18,08,150,18,21,03,029,14*76
$GPGSV,4,3,16,23,26,189,34,26,00,074,,27,53,061,38,28,11,256,37*7C
$GPGSV,4,4,16,30,28,304,35,46,23,237,32,48,20,240,33,51,35,213,27*7D
$GPGLL,4239.49266,N,08314.55876,W,192236.00,A,D*77
$GPRMC,192237.00,A,4239.49326,N,08314.55856,W,2.176,27.67,050418,,,D*48
$GPVTG,27.67,T,,M,2.176,N,4.030,K,D*09
$GPGGA,192237.00,4239.49326,N,08314.55856,W,2,10,0.85,279.8,M,-34.9,M,,0000*69
$GPGSA,A,3,08,27,09,07,23,16,30,11,28,18,,,1.56,0.85,1.30*0A
$GPGSV,4,1,16,05,00,315,,07,55,310,39,08,68,160,37,09,47,231,32*78
$GPGSV,4,2,16,11,15,171,23,16,25,062,31,18,08,150,19,21,03,029,13*78
$GPGSV,4,3,16,23,26,189,28,26,00,074,,27,53,061,38,28,11,256,25*72
$GPGSV,4,4,16,30,28,304,30,46,23,237,31,48,20,240,30,51,35,213,*7D
$GPGLL,4239.49326,N,08314.55856,W,192237.00,A,D*71
$GPRMC,192238.00,A,4239.49391,N,08314.55832,W,2.309,8.87,050418,,,D*70
$GPVTG,8.87,T,,M,2.309,N,4.277,K,D*31
$GPGGA,192238.00,4239.49391,N,08314.55832,W,2,10,0.85,279.6,M,-34.9,M,,0000*66
$GPGSA,A,3,08,27,09,07,23,16,30,11,28,18,,,1.56,0.85,1.30*0A
$GPGSV,4,1,16,05,00,315,,07,55,310,43,08,68,160,41,09,47,231,38*7E
$GPGSV,4,2,16,11,15,171,26,16,25,062,32,18,08,150,20,21,03,029,13*74
$GPGSV,4,3,16,23,26,189,29,26,00,074,,27,53,061,43,28,11,256,37*7C
$GPGSV,4,4,16,30,28,304,35,46,23,237,37,48,20,240,37,51,35,213,32*78
$GPGLL,4239.49391,N,08314.55832,W,192238.00,A,D*70
$GPRMC,192239.00,A,4239.49454,N,08314.55844,W,2.566,1.80,050418,,,D*7F
$GPVTG,1.80,T,,M,2.566,N,4.752,K,D*32
$GPGGA,192239.00,4239.49454,N,08314.55844,W,2,10,0.85,279.6,M,-34.9,M,,0000*68
$GPGSA,A,3,08,27,09,07,23,16,30,11,28,18,,,1.56,0.85,1.30*0A
$GPGSV,4,1,16,05,00,315,,07,55,310,44,08,68,160,38,09,47,231,37*78
$GPGSV,4,2,16,11,15,171,30,16,25,062,38,18,08,150,23,21,03,029,14*7D
$GPGSV,4,3,16,23,26,189,33,26,00,074,,27,53,061,42,28,11,256,36*77
$GPGSV,4,4,16,30,28,304,34,46,23,237,35,48,20,240,37,51,35,213,32*7B
$GPGLL,4239.49454,N,08314.55844,W,192239.00,A,D*7E
$GPRMC,192240.00,A,4239.49522,N,08314.55853,W,2.615,358.67,050418,,,D*76
$GPVTG,358.67,T,,M,2.615,N,4.844,K,D*3B
$GPGGA,192240.00,4239.49522,N,08314.55853,W,2,10,0.85,279.6,M,-34.9,M,,0000*60
$GPGSA,A,3,08,27,09,07,23,16,30,11,28,18,,,1.56,0.85,1.30*0A
$GPGSV,4,1,16,05,00,315,,07,55,310,42,08,68,160,36,09,47,231,38*7F
$GPGSV,4,2,16,11,15,171,28,16,24,063,35,18,08,150,24,21,03,029,15*7F
$GPGSV,4,3,16,23,26,189,21,26,00,074,,27,53,061,40,28,11,256,36*76
$GPGSV,4,4,16,30,28,304,30,46,23,237,35,48,20,240,35,51,35,213,29*77
$GPGLL,4239.49522,N,08314.55853,W,192240.00,A,D*76
$GPRMC,192241.00,A,4239.49584,N,08314.55874,W,2.641,357.12,050418,,,D*72
$GPVTG,357.12,T,,M,2.641,N,4.891,K,D*3F
$GPGGA,192241.00,4239.49584,N,08314.55874,W,2,10,0.85,279.2,M,-34.9,M,,0000*6C
$GPGSA,A,3,08,27,09,07,23,16,30,11,28,18,,,1.56,0.85,1.30*0A
$GPGSV,4,1,16,05,00,315,,07,55,310,44,08,68,160,41,09,47,231,41*77
$GPGSV,4,2,16,11,15,171,27,16,24,063,39,18,08,150,25,21,03,029,14*7C
$GPGSV,4,3,16,23,26,189,36,26,00,074,,27,53,061,43,28,11,256,39*7C
$GPGSV,4,4,16,30,28,304,38,46,23,237,34,48,20,240,37,51,35,213,33*77
$GPGLL,4239.49584,N,08314.55874,W,192241.00,A,D*7E
$GPRMC,192242.00,A,4239.49651,N,08314.55865,W,2.476,359.49,050418,,,D*7C
$GPVTG,359.49,T,,M,2.476,N,4.586,K,D*32
$GPGGA,192242.00,4239.49651,N,08314.55865,W,2,10,0.85,278.8,M,-34.9,M,,0000*6F
$GPGSA,A,3,08,27,09,07,23,16,30,11,28,18,,,1.56,0.85,1.30*0A
$GPGSV,4,1,16,05,00,315,,07,55,310,44,08,68,160,40,09,47,231,40*77
$GPGSV,4,2,16,11,15,171,26,16,24,063,38,18,08,150,25,21,03,029,17*7F
$GPGSV,4,3,16,23,26,189,30,26,00,074,21,27,53,061,45,28,11,256,41*70
$GPGSV,4,4,16,30,28,304,36,46,23,237,37,48,20,240,35,51,35,213,32*79
$GPGLL,4239.49651,N,08314.55865,W,192242.00,A,D*76
$GPRMC,192243.00,A,4239.49716,N,08314.55864,W,2.623,359.72,050418,,,D*74
$GPVTG,359.72,T,,M,2.623,N,4.857,K,D*39
$GPGGA,192243.00,4239.49716,N,08314.55864,W,2,10,0.85,278.9,M,-34.9,M,,0000*6C
$GPGSA,A,3,08,27,09,07,23,16,30,11,28,18,,,1.56,0.85,1.30*0A
$GPGSV,4,1,16,05,00,315,,07,55,310,41,08,68,160,40,09,47,231,39*7C
$GPGSV,4,2,16,11,15,171,28,16,24,063,41,18,08,150,24,21,03,029,21*7B
$GPGSV,4,3,16,23,26,189,29,26,00,074,22,27,53,061,44,28,11,256,35*79
$GPGSV,4,4,16,30,28,304,34,46,23,237,35,48,20,240,35,51,35,213,29*73
$GPGLL,4239.49716,N,08314.55864,W,192243.00,A,D*74
$GPRMC,192244.00,A,4239.49784,N,08314.55866,W,2.504,359.88,050418,,,D*79
$GPVTG,359.88,T,,M,2.504,N,4.638,K,D*3D
