$GPGSA,A,3,08,27,09,07,51,23,16,30,11,28,48,18,1.63,0.85,1.39*0D
$GPGSV,4,1,16,05,00,315,,07,54,310,40,08,67,161,45,09,48,232,44*71
$GPGSV,4,2,16,11,15,171,34,16,25,062,37,18,07,150,34,21,03,029,*7A
$GPGSV,4,3,16,23,27,189,39,26,01,073,,27,53,062,45,28,10,256,33*7A
$GPGSV,4,4,16,30,27,304,29,46,23,237,,48,20,240,36,51,35,213,36*7B
$GPGLL,4239.48971,N,08314.61883,W,192109.00,A,D*79
$GPRMC,192110.00,A,4239.48984,N,08314.61884,W,0.855,313.26,050418,,,D*7E
$GPVTG,313.26,T,,M,0.855,N,1.584,K,D*3D
$GPGGA,192110.00,4239.48984,N,08314.61884,W,2,12,0.80,284.4,M,-34.9,M,,0000*6D
$GPGSA,A,3,08,27,09,07,51,23,16,30,11,28,48,18,1.48,0.80,1.25*0C
$GPGSV,4,1,16,05,00,315,,07,54,310,41,08,67,161,45,09,48,232,45*71
$GPGSV,4,2,16,11,15,171,33,16,25,062,35,18,07,150,32,21,03,029,*79
$GPGSV,4,3,16,23,27,189,39,26,01,073,,27,53,062,45,28,10,256,33*7A
$GPGSV,4,4,16,30,27,304,29,46,23,237,,48,20,240,35,51,35,213,37*79
$GPGLL,4239.48984,N,08314.61884,W,192110.00,A,D*7C
$GPRMC,192111.00,A,4239.48985,N,08314.61884,W,0.074,,050418,,,D*6E
$GPVTG,,T,,M,0.074,N,0.138,K,D*2F
$GPGGA,192111.00,4239.48985,N,08314.61884,W,2,12,0.80,284.4,M,-34.9,M,,0000*6D
$GPGSA,A,3,08,27,09,07,51,23,16,30,11,28,48,18,1.48,0.80,1.25*0C
$GPGSV,4,1,16,05,00,315,,07,54,310,41,08,67,161,44,09,48,232,44*71
$GPGSV,4,2,16,11,15,171,33,16,25,062,38,18,07,150,33,21,03,029,*75
$GPGSV,4,3,16,23,27,189,39,26,01,073,,27,53,062,45,28,10,256,34*7D
$GPGSV,4,4,16,30,27,304,28,46,23,237,,48,20,240,38,51,35,213,35*77
$GPGLL,4239.48985,N,08314.61884,W,192111.00,A,D*7C
$GPRMC,192112.00,A,4239.48981,N,08314.61882,W,0.077,,050418,,,D*6C
$GPVTG,,T,,M,0.077,N,0.143,K,D*20
$GPGGA,192112.00,4239.48981,N,08314.61882,W,2,12,0.80,284.3,M,-34.9,M,,0000*6B
$GPGSA,A,3,08,27,09,07,51,23,16,30,11,28,48,18,1.48,0.80,1.25*0C
$GPGSV,4,1,16,05,00,315,,07,54,310,41,08,67,161,44,09,48,232,43*76
$GPGSV,4,2,16,11,15,171,33,16,25,062,38,18,07,150,32,21,03,029,*74
$GPGSV,4,3,16,23,27,189,39,26,01,073,,27,53,062,45,28,10,256,34*7D
$GPGSV,4,4,16,30,27,304,28,46,23,237,,48,20,240,38,51,35,213,37*75
$GPGLL,4239.48981,N,08314.61882,W,192112.00,A,D*7D
$GPRMC,192113.00,A,4239.48981,N,08314.61879,W,0.133,,050418,,,D*68
$GPVTG,,T,,M,0.133,N,0.246,K,D*27
$GPGGA,192113.00,4239.48981,N,08314.61879,W,2,12,0.80,284.3,M,-34.9,M,,0000*6E
$GPGSA,A,3,08,27,09,07,51,23,16,30,11,28,48,18,1.48,0.80,1.25*0C
$GPGSV,4,1,16,05,00,315,,07,54,310,36,08,67,161,43,09,48,232,41*73
$GPGSV,4,2,16,11,15,171,34,16,25,062,39,18,07,150,25,21,03,029,*74
$GPGSV,4,3,16,23,27,189,37,26,01,073,,27,53,062,47,28,10,256,33*76
$GPGSV,4,4,16,30,27,304,33,46,23,237,,48,20,240,31,51,35,213,38*79
$GPGLL,4239.48981,N,08314.61879,W,192113.00,A,D*78
$GPRMC,192114.00,A,4239.48977,N,08314.61878,W,0.037,,050418,,,D*62
$GPVTG,,T,,M,0.037,N,0.068,K,D*2C
$GPGGA,192114.00,4239.48977,N,08314.61878,W,2,12,0.80,284.3,M,-34.9,M,,0000*61
$GPGSA,A,3,08,27,09,07,51,23,16,30,11,28,48,18,1.49,0.80,1.25*0D
$GPGSV,4,1,16,05,00,315,,07,54,310,36,08,67,161,41,09,48,232,40*70
$GPGSV,4,2,16,11,15,171,33,16,25,062,38,18,07,150,27,21,03,029,*70
$GPGSV,4,3,16,23,27,189,39,26,01,073,,27,53,062,47,28,10,256,32*79
$GPGSV,4,4,16,30,27,304,32,46,23,237,,48,20,240,29,51,35,213,38*71
$GPGLL,4239.48977,N,08314.61878,W,192114.00,A,D*77
$GPRMC,192115.00,A,4239.48973,N,08314.61880,W,0.048,,050418,,,D*68
$GPVTG,,T,,M,0.048,N,0.089,K,D*2B
$GPGGA,192115.00,4239.48973,N,08314.61880,W,2,12,0.80,284.3,M,-34.9,M,,0000*63
$GPGSA,A,3,08,27,09,07,51,23,16,30,11,28,48,18,1.49,0.80,1.25*0D
$GPGSV,4,1,16,05,00,315,,07,54,310,36,08,67,161,41,09,48,232,42*72
$GPGSV,4,2,16,11,15,171,33,16,25,062,40,18,07,150,27,21,03,029,*7F
$GPGSV,4,3,16,23,27,189,41,26,01,073,,27,53,062,47,28,10,256,31*75
$GPGSV,4,4,16,30,27,304,31,46,23,237,,48,20,240,28,51,35,213,37*7C
$GPGLL,4239.48973,N,08314.61880,W,192115.00,A,D*75
$GPRMC,192116.00,A,4239.48970,N,08314.61882,W,0.012,,050418,,,D*65
$GPVTG,,T,,M,0.012,N,0.023,K,D*24
$GPGGA,192116.00,4239.48970,N,08314.61882,W,2,12,0.80,284.4,M,-34.9,M,,0000*66
$GPGSA,A,3,08,27,09,07,51,23,16,30,11,28,48,18,1.49,0.80,1.25*0D
$GPGSV,4,1,16,05,00,315,,07,54,310,38,08,67,161,42,09,48,232,42*7F
$GPGSV,4,2,16,11,15,171,34,16,25,062,38,18,07,150,26,21,03,029,*76
$GPGSV,4,3,16,23,27,189,40,26,01,073,,27,53,062,46,28,10,256,30*74
$GPGSV,4,4,16,30,27,304,30,46,23,237,,48,20,240,33,51,35,213,37*77
$GPGLL,4239.48970,N,08314.61882,W,192116.00,A,D*77
$GPRMC,192117.00,A,4239.48968,N,08314.61883,W,0.036,,050418,,,D*6A
$GPVTG,,T,,M,0.036,N,0.066,K,D*23
$GPGGA,192117.00,4239.48968,N,08314.61883,W,2,12,0.80,284.3,M,-34.9,M,,0000*68
$GPGSA,A,3,08,27,09,07,51,23,16,30,11,28,48,18,1.49,0.80,1.25*0D
$GPGSV,4,1,16,05,00,315,,07,54,310,36,08,67,161,42,09,48,232,42*71
$GPGSV,4,2,16,11,15,171,34,16,25,062,39,18,07,150,26,21,03,029,*77
$GPGSV,4,3,16,23,27,189,40,26,01,073,,27,53,062,46,28,10,256,30*74
$GPGSV,4,4,16,30,27,304,30,46,23,237,36,48,20,240,33,51,35,213,38*7D
$GPGLL,4239.48968,N,08314.61883,W,192117.00,A,D*7E
$GPRMC,192118.00,A,4239.48973,N,08314.61879,W,0.355,,050418,,,D*6C
$GPVTG,,T,,M,0.355,N,0.658,K,D*2E
$GPGGA,192118.00,4239.48973,N,08314.61879,W,2,12,0.80,284.1,M,-34.9,M,,0000*6A
$GPGSA,A,3,08,27,09,07,51,23,16,30,11,28,48,18,1.49,0.80,1.25*0D
$GPGSV,4,1,16,05,00,315,,07,54,310,36,08,67,161,44,09,48,232,36*74
$GPGSV,4,2,16,11,15,171,29,16,25,062,36,18,07,150,28,21,03,029,*7A
$GPGSV,4,3,16,23,27,189,41,26,00,073,,27,53,062,45,28,10,256,30*77
$GPGSV,4,4,16,30,27,304,31,46,23,237,31,48,20,240,27,51,35,213,41*70
$GPGLL,4239.48973,N,08314.61879,W,192118.00,A,D*7E
$GPRMC,192119.00,A,4239.48979,N,08314.61856,W,1.044,12.19,050418,,,D*4D
$GPVTG,12.19,T,,M,1.044,N,1.934,K,D*0D
$GPGGA,192119.00,4239.48979,N,08314.61856,W,2,12,0.82,284.2,M,-34.9,M,,0000*6D
$GPGSA,A,3,08,27,09,07,51,23,16,30,11,28,48,18,1.51,0.82,1.27*04
$GPGSV,4,1,16,05,00,315,,07,54,310,40,08,67,161,43,09,48,232,41*72
$GPGSV,4,2,16,11,15,171,28,16,25,062,38,18,07,150,32,21,03,029,*7E
$GPGSV,4,3,16,23,27,189,42,26,00,073,,27,53,061,45,28,10,256,26*70
$GPGSV,4,4,16,30,27,304,30,46,23,237,,48,20,240,28,51,35,213,38*72
$GPGLL,4239.48979,N,08314.61856,W,192119.00,A,D*78
$GPRMC,192120.00,A,4239.48982,N,08314.61802,W,1.634,55.69,050418,,,D*47
$GPVTG,55.69,T,,M,1.634,N,3.027,K,D*01
$GPGGA,192120.00,4239.48982,N,08314.61802,W,2,11,0.82,284.1,M,-34.9,M,,0000*62
$GPGSA,A,3,08,27,09,07,51,23,16,30,11,28,18,,1.51,0.82,1.27*08
$GPGSV,4,1,16,05,00,315,,07,54,310,34,08,67,161,43,09,48,232,42*72
$GPGSV,4,2,16,11,15,171,35,16,25,062,37,18,07,150,26,21,03,029,*78
$GPGSV,4,3,16,23,27,189,35,26,00,073,,27,53,061,46,28,11,256,28*7C
$GPGSV,4,4,16,30,27,304,24,46,23,237,,48,20,240,,51,35,213,39*7C
$GPGLL,4239.48982,N,08314.61802,W,192120.00,A,D*77
$GPRMC,192121.00,A,4239.48989,N,08314.61759,W,1.208,64.55,050418,,,D*4A
$GPVTG,64.55,T,,M,1.208,N,2.237,K,D*05
$GPGGA,192121.00,4239.48989,N,08314.61759,W,2,12,0.80,284.2,M,-34.9,M,,0000*6B
$GPGSA,A,3,08,27,09,07,51,23,16,30,11,28,48,18,1.49,0.80,1.25*0D
$GPGSV,4,1,16,05,00,315,,07,54,310,34,08,67,161,43,09,48,232,41*71
$GPGSV,4,2,16,11,15,171,28,16,25,062,40,18,07,150,36,21,03,029,*75
$GPGSV,4,3,16,23,27,189,41,26,00,073,,27,53,061,43,28,11,256,29*7B
$GPGSV,4,4,16,30,27,304,26,46,23,237,,48,20,240,32,51,35,213,42*73
$GPGLL,4239.48989,N,08314.61759,W,192121.00,A,D*7C
$GPRMC,192122.00,A,4239.48994,N,08314.61702,W,1.996,90.59,050418,,,D*40
$GPVTG,90.59,T,,M,1.996,N,3.696,K,D*00
$GPGGA,192122.00,4239.48994,N,08314.61702,W,2,12,0.80,283.8,M,-34.9,M,,0000*67
$GPGSA,A,3,08,27,09,07,51,23,16,30,11,28,48,18,1.49,0.80,1.25*0D
$GPGSV,4,1,16,05,00,315,,07,54,310,41,08,67,161,43,09,48,232,41*73
$GPGSV,4,2,16,11,15,171,35,16,25,062,38,18,07,150,35,21,03,029,*75
$GPGSV,4,3,16,23,27,189,33,26,00,073,,27,53,061,45,28,11,256,28*79
$GPGSV,4,4,16,30,28,304,27,46,23,237,,48,20,240,29,51,35,213,41*74
$GPGLL,4239.48994,N,08314.61702,W,192122.00,A,D*7D
$GPRMC,192123.00,A,4239.48998,N,08314.61636,W,1.863,89.24,050418,,,D*42
$GPVTG,89.24,T,,M,1.863,N,3.451,K,D*00
$GPGGA,192123.00,4239.48998,N,08314.61636,W,2,12,0.82,283.8,M,-34.9,M,,0000*6E
$GPGSA,A,3,08,27,09,07,51,23,16,30,11,28,48,18,1.51,0.82,1.27*04
$GPGSV,4,1,16,05,00,315,,07,54,310,40,08,67,161,44,09,48,232,42*76
$GPGSV,4,2,16,11,15,171,31,16,25,062,38,18,07,150,33,21,03,029,*77
$GPGSV,4,3,16,23,27,189,36,26,00,073,,27,53,061,45,28,11,256,28*7C
$GPGSV,4,4,16,30,28,304,26,46,23,237,,48,20,240,28,51,35,213,39*7B
$GPGLL,4239.48998,N,08314.61636,W,192123.00,A,D*76
$GPRMC,192124.00,A,4239.49005,N,08314.61568,W,2.055,88.81,050418,,,D*41
$GPVTG,88.81,T,,M,2.055,N,3.805,K,D*0D
$GPGGA,192124.00,4239.49005,N,08314.61568,W,2,11,0.82,283.7,M,-34.9,M,,0000*61
$GPGSA,A,3,08,27,09,07,51,23,16,30,11,28,18,,1.51,0.82,1.27*08
$GPGSV,4,1,16,05,00,315,,07,54,310,37,08,67,161,43,09,48,232,43*70
$GPGSV,4,2,16,11,15,171,30,16,25,062,35,18,07,150,34,21,03,029,*7C
$GPGSV,4,3,16,23,27,189,33,26,00,073,,27,53,061,44,28,11,256,27*77
$GPGSV,4,4,16,30,28,304,31,46,23,237,,48,20,240,,51,35,213,38*76
$GPGLL,4239.49005,N,08314.61568,W,192124.00,A,D*75
$GPRMC,192125.00,A,4239.49013,N,08314.61500,W,2.090,89.37,050418,,,D*4C
$GPVTG,89.37,T,,M,2.090,N,3.871,K,D*0B
$GPGGA,192125.00,4239.49013,N,08314.61500,W,2,12,0.80,283.9,M,-34.9,M,,0000*66
$GPGSA,A,3,08,27,09,07,51,23,16,30,11,28,48,18,1.49,0.80,1.25*0D
$GPGSV,4,1,16,05,00,315,,07,54,310,36,08,67,161,44,09,48,232,42*77
$GPGSV,4,2,16,11,15,171,30,16,25,062,41,18,07,150,38,21,03,029,*73
$GPGSV,4,3,16,23,27,189,31,26,00,073,,27,53,061,44,28,11,256,26*74
$GPGSV,4,4,16,30,28,304,28,46,23,237,,48,20,240,31,51,35,213,39*7D
$GPGLL,4239.49013,N,08314.61500,W,192125.00,A,D*7D
$GPRMC,192126.00,A,4239.49022,N,08314.61444,W,1.461,86.12,050418,,,D*4D
$GPVTG,86.12,T,,M,1.461,N,2.707,K,D*05
$GPGGA,192126.00,4239.49022,N,08314.61444,W,2,12,0.80,283.5,M,-34.9,M,,0000*6A
$GPGSA,A,3,08,27,09,07,51,23,16,30,11,28,48,18,1.49,0.80,1.25*0D
$GPGSV,4,1,16,05,00,315,,07,54,310,38,08,67,161,44,09,48,232,41*7A
$GPGSV,4,2,16,11,15,171,35,16,25,062,37,18,07,150,27,21,03,029,*79
$GPGSV,4,3,16,23,27,189,30,26,00,073,16,27,53,061,45,28,11,256,32*76
$GPGSV,4,4,16,30,28,304,26,46,23,237,,48,20,240,34,51,35,213,34*7B
$GPGLL,4239.49022,N,08314.61444,W,192126.00,A,D*7D
$GPRMC,192127.00,A,4239.49032,N,08314.61382,W,1.858,83.27,050418,,,D*45
$GPVTG,83.27,T,,M,1.858,N,3.440,K,D*01
$GPGGA,192127.00,4239.49032,N,08314.61382,W,2,12,0.80,283.3,M,-34.9,M,,0000*61
$GPGSA,A,3,08,27,09,07,51,23,16,30,11,28,48,18,1.49,0.80,1.25*0D
$GPGSV,4,1,16,05,00,315,,07,54,310,40,08,67,161,44,09,48,232,43*77
$GPGSV,4,2,16,11,15,171,33,16,25,062,38,18,07,150,27,21,03,029,*70
$GPGSV,4,3,16,23,27,189,42,26,00,073,,27,53,061,44,28,11,256,25*73
$GPGSV,4,4,16,30,28,304,32,46,23,237,,48,20,240,33,51,35,213,38*75
$GPGLL,4239.49032,N,08314.61382,W,192127.00,A,D*70
$GPRMC,192128.00,A,4239.49047,N,08314.61321,W,1.940,82.39,050418,,,D*47
$GPVTG,82.39,T,,M,1.940,N,3.593,K,D*08
$GPGGA,192128.00,4239.49047,N,08314.61321,W,2,12,0.80,283.4,M,-34.9,M,,0000*62
$GPGSA,A,3,08,27,09,07,51,23,16,30,11,28,48,18,1.49,0.80,1.25*0D
$GPGSV,4,1,16,05,00,315,,07,54,310,38,08,67,161,45,09,48,232,42*78
$GPGSV,4,2,16,11,15,171,32,16,25,062,39,18,07,150,37,21,03,029,*71
$GPGSV,4,3,16,23,27,189,34,26,00,073,,27,53,061,44,28,11,256,26*71
$GPGSV,4,4,16,30,28,304,27,46,23,237,,48,20,240,33,51,35,213,39*70
$GPGLL,4239.49047,N,08314.61321,W,192128.00,A,D*74
$GPRMC,192129.00,A,4239.49050,N,08314.61250,W,1.936,86.09,050418,,,D*41
$GPVTG,86.09,T,,M,1.936,N,3.586,K,D*0A
$GPGGA,192129.00,4239.49050,N,08314.61250,W,2,12,0.80,283.2,M,-34.9,M,,0000*64
$GPGSA,A,3,08,27,09,07,51,23,16,30,11,28,48,18,1.49,0.80,1.25*0D
$GPGSV,4,1,16,05,00,315,,07,54,310,43,08,67,161,43,09,48,232,41*71
$GPGSV,4,2,16,11,15,171,37,16,25,062,38,18,07,150,38,21,03,029,*7A
$GPGSV,4,3,16,23,27,189,29,26,00,073,,27,53,061,45,28,11,256,32*79
$GPGSV,4,4,16,30,28,304,27,46,23,237,,48,20,240,34,51,35,213,35*7B
$GPGLL,4239.49050,N,08314.61250,W,192129.00,A,D*74
$GPRMC,192130.00,A,4239.49072,N,08314.61225,W,0.954,,050418,,,D*67
$GPVTG,,T,,M,0.954,N,1.767,K,D*29
$GPGGA,192130.00,4239.49072,N,08314.61225,W,2,12,0.80,282.8,M,-34.9,M,,0000*65
$GPGSA,A,3,08,27,09,07,51,23,16,30,11,28,48,18,1.49,0.80,1.25*0D
$GPGSV,4,1,16,05,00,315,,07,54,310,43,08,67,161,46,09,48,232,42*77
$GPGSV,4,2,16,11,15,171,31,16,25,062,36,18,07,150,36,21,03,029,*7C
$GPGSV,4,3,16,23,27,189,33,26,00,073,,27,53,061,45,28,11,256,31*71
$GPGSV,4,4,16,30,28,304,27,46,23,237,,48,20,240,31,51,35,213,39*72
$GPGLL,4239.49072,N,08314.61225,W,192130.00,A,D*7E
$GPRMC,192131.00,A,4239.49081,N,08314.61172,W,1.956,85.95,050418,,,D*47
$GPVTG,85.95,T,,M,1.956,N,3.622,K,D*07
$GPGGA,192131.00,4239.49081,N,08314.61172,W,2,11,0.82,283.2,M,-34.9,M,,0000*63
$GPGSA,A,3,08,27,09,07,51,23,16,30,11,28,18,,1.51,0.82,1.27*08
$GPGSV,4,1,16,05,00,315,,07,54,310,40,08,67,161,45,09,48,232,43*76
$GPGSV,4,2,16,11,15,171,39,16,25,062,37,18,07,150,37,21,03,029,*74
$GPGSV,4,3,16,23,27,189,35,26,00,073,,27,53,061,45,28,11,256,32*74
$GPGSV,4,4,16,30,28,304,28,46,23,237,,48,20,240,30,51,35,213,40*72
$GPGLL,4239.49081,N,08314.61172,W,192131.00,A,D*72
$GPRMC,192132.00,A,4239.49089,N,08314.61105,W,1.891,89.11,050418,,,D*46
$GPVTG,89.11,T,,M,1.891,N,3.502,K,D*0C
$GPGGA,192132.00,4239.49089,N,08314.61105,W,2,12,0.82,283.0,M,-34.9,M,,0000*69
$GPGSA,A,3,08,27,09,07,51,23,16,30,11,28,48,18,1.51,0.82,1.27*04
$GPGSV,4,1,16,05,00,315,,07,54,310,39,08,67,161,44,09,48,232,43*79
$GPGSV,4,2,16,11,15,171,38,16,25,062,38,18,07,150,33,21,03,029,*7E
$GPGSV,4,3,16,23,27,189,37,26,00,073,,27,53,061,45,28,11,256,31*75
$GPGSV,4,4,16,30,28,304,33,46,23,237,,48,20,240,29,51,35,213,37*70
$GPGLL,4239.49089,N,08314.61105,W,192132.00,A,D*79
$GPRMC,192133.00,A,4239.49086,N,08314.61035,W,1.832,90.28,050418,,,D*41
$GPVTG,90.28,T,,M,1.832,N,3.392,K,D*08
$GPGGA,192133.00,4239.49086,N,08314.61035,W,2,11,0.82,283.0,M,-34.9,M,,0000*66
$GPGSA,A,3,08,27,09,07,51,23,16,30,11,28,18,,1.51,0.82,1.27*08
$GPGSV,4,1,16,05,00,315,,07,54,310,38,08,67,161,42,09,48,232,42*7F
$GPGSV,4,2,16,11,15,171,37,16,25,062,37,18,07,150,28,21,03,029,*74
$GPGSV,4,3,16,23,27,189,37,26,00,073,,27,53,061,47,28,11,256,32*74
$GPGSV,4,4,16,30,28,304,28,46,23,237,,48,20,240,,51,35,213,38*7E
$GPGLL,4239.49086,N,08314.61035,W,192133.00,A,D*75
$GPRMC,192134.00,A,4239.49086,N,08314.60974,W,1.721,93.70,050418,,,D*48
$GPVTG,93.70,T,,M,1.721,N,3.188,K,D*02
$GPGGA,192134.00,4239.49086,N,08314.60974,W,2,11,0.82,283.0,M,-34.9,M,,0000*6C
$GPGSA,A,3,08,27,09,07,51,23,16,30,11,28,18,,1.51,0.82,1.27*08
$GPGSV,4,1,16,05,00,315,,07,54,310,40,08,67,161,41,09,48,232,40*71
$GPGSV,4,2,16,11,15,171,41,16,25,062,38,18,07,150,36,21,03,029,*75
$GPGSV,4,3,16,23,27,189,39,26,00,073,,27,53,061,45,28,11,256,27*7C
$GPGSV,4,4,16,30,28,304,28,46,23,237,,48,20,240,28,51,35,213,28*75
$GPGLL,4239.49086,N,08314.60974,W,192134.00,A,D*7F
$GPRMC,192135.00,A,4239.49083,N,08314.60908,W,1.824,96.09,050418,,,D*46
$GPVTG,96.09,T,,M,1.824,N,3.378,K,D*0E
$GPGGA,192135.00,4239.49083,N,08314.60908,W,2,12,0.80,282.9,M,-34.9,M,,0000*6A
$GPGSA,A,3,08,27,09,07,51,23,16,30,11,28,48,18,1.49,0.80,1.25*0D
$GPGSV,4,1,16,05,00,315,,07,54,310,38,08,67,161,43,09,48,232,40*7C
$GPGSV,4,2,16,11,15,171,30,16,25,062,40,18,07,150,35,21,03,029,*7F
$GPGSV,4,3,16,23,27,189,41,26,00,073,,27,53,061,47,28,11,256,27*71
$GPGSV,4,4,16,30,28,304,28,46,23,237,,48,20,240,33,51,35,213,34*72
$GPGLL,4239.49083,N,08314.60908,W,192135.00,A,D*70
$GPRMC,192136.00,A,4239.49091,N,08314.60841,W,1.803,90.68,050418,,,D*4E
$GPVTG,90.68,T,,M,1.803,N,3.339,K,D*0F
$GPGGA,192136.00,4239.49091,N,08314.60841,W,2,12,0.80,283.2,M,-34.9,M,,0000*6C
$GPGSA,A,3,08,27,09,07,51,23,16,30,11,28,48,18,1.49,0.80,1.25*0D
$GPGSV,4,1,16,05,00,315,,07,54,310,40,08,67,161,42,09,48,232,43*71
$GPGSV,4,2,16,11,15,171,26,16,25,062,38,18,07,150,26,21,03,029,*75
$GPGSV,4,3,16,23,27,189,41,26,00,073,,27,53,061,46,28,11,256,28*7F
$GPGSV,4,4,16,30,28,304,32,46,23,237,,48,20,240,29,51,35,213,39*7F
$GPGLL,4239.49091,N,08314.60841,W,192136.00,A,D*7C
$GPRMC,192137.00,A,4239.49103,N,08314.60772,W,2.093,86.28,050418,,,D*4B
$GPVTG,86.28,T,,M,2.093,N,3.876,K,D*0E
$GPGGA,192137.00,4239.49103,N,08314.60772,W,2,12,0.80,283.2,M,-34.9,M,,0000*68
$GPGSA,A,3,08,27,09,07,51,23,16,30,11,28,48,18,1.49,0.80,1.25*0D
$GPGSV,4,1,16,05,00,315,,07,54,310,41,08,67,161,43,09,48,232,41*73
$GPGSV,4,2,16,11,15,171,34,16,25,062,35,18,07,150,32,21,03,029,*7E
$GPGSV,4,3,16,23,27,189,41,26,00,073,,27,53,061,45,28,11,256,28*7C
$GPGSV,4,4,16,30,28,304,27,46,23,237,,48,20,240,33,51,35,213,31*78
$GPGLL,4239.49103,N,08314.60772,W,192137.00,A,D*78
$GPRMC,192138.00,A,4239.49103,N,08314.60701,W,1.860,88.90,050418,,,D*4A
$GPVTG,88.90,T,,M,1.860,N,3.445,K,D*08
$GPGGA,192138.00,4239.49103,N,08314.60701,W,2,12,0.80,282.9,M,-34.9,M,,0000*69
$GPGSA,A,3,08,27,09,07,51,23,16,30,11,28,48,18,1.49,0.80,1.25*0D
$GPGSV,4,1,16,05,00,315,,07,54,310,40,08,67,161,43,09,48,232,45*76
$GPGSV,4,2,16,11,15,171,37,16,25,062,36,18,07,150,28,21,03,029,*75
$GPGSV,4,3,16,23,27,189,36,26,00,073,,27,53,061,45,28,11,256,29*7D
$GPGSV,4,4,16,30,28,304,26,46,23,237,,48,20,240,28,51,35,213,39*7B
$GPGLL,4239.49103,N,08314.60701,W,192138.00,A,D*73
$GPRMC,192139.00,A,4239.49101,N,08314.60623,W,2.158,90.23,050418,,,D*48
$GPVTG,90.23,T,,M,2.158,N,3.997,K,D*0A
$GPGGA,192139.00,4239.49101,N,08314.60623,W,2,12,0.80,282.9,M,-34.9,M,,0000*6B
$GPGSA,A,3,08,27,09,07,51,23,16,30,11,28,48,18,1.49,0.80,1.25*0D
$GPGSV,4,1,16,05,00,315,,07,54,310,39,08,67,161,45,09,48,232,42*79
$GPGSV,4,2,16,11,15,171,37,16,25,062,37,18,07,150,31,21,03,029,*7C
$GPGSV,4,3,16,23,27,189,37,26,00,073,,27,53,061,45,28,11,256,29*7C
$GPGSV,4,4,16,30,28,304,27,46,23,237,,48,20,240,33,51,35,213,41*7F
$GPGLL,4239.49101,N,08314.60623,W,192139.00,A,D*71
$GPRMC,192140.00,A,4239.49110,N,08314.60556,W,1.793,85.31,050418,,,D*42
$GPVTG,85.31,T,,M,1.793,N,3.321,K,D*08
$GPGGA,192140.00,4239.49110,N,08314.60556,W,2,12,0.80,282.8,M,-34.9,M,,0000*65
$GPGSA,A,3,08,27,09,07,51,23,16,30,11,28,48,18,1.49,0.80,1.25*0D
$GPGSV,4,1,16,05,00,315,,07,54,310,40,08,67,161,45,09,48,232,42*77
$GPGSV,4,2,16,11,15,171,41,16,25,062,35,18,07,150,31,21,03,029,*7F
$GPGSV,4,3,16,23,27,189,33,26,00,073,,27,53,061,45,28,11,256,22*73
$GPGSV,4,4,16,30,28,304,26,46,23,237,,48,20,240,29,51,35,213,40*74
$GPGLL,4239.49110,N,08314.60556,W,192140.00,A,D*7E
$GPRMC,192141.00,A,4239.49116,N,08314.60477,W,2.180,83.31,050418,,,D*46
$GPVTG,83.31,T,,M,2.180,N,4.038,K,D*05
$GPGGA,192141.00,4239.49116,N,08314.60477,W,2,12,0.82,283.0,M,-34.9,M,,0000*6B
$GPGSA,A,3,08,27,09,07,51,23,16,30,11,28,48,18,1.51,0.82,1.27*04
$GPGSV,4,1,16,05,00,315,,07,54,310,41,08,67,161,45,09,48,232,42*76
$GPGSV,4,2,16,11,15,171,40,16,25,062,37,18,07,150,31,21,03,029,*7C
$GPGSV,4,3,16,23,27,189,31,26,00,073,,27,53,061,45,28,11,256,23*70
$GPGSV,4,4,16,30,28,304,28,46,23,237,,48,20,240,27,51,35,213,42*76
$GPGLL,4239.49116,N,08314.60477,W,192141.00,A,D*7B
$GPRMC,192142.00,A,4239.49122,N,08314.60395,W,2.105,84.70,050418,,,D*46
$GPVTG,84.70,T,,M,2.105,N,3.898,K,D*0F
$GPGGA,192142.00,4239.49122,N,08314.60395,W,2,11,0.82,282.7,M,-34.9,M,,0000*61
$GPGSA,A,3,08,27,09,07,51,23,16,30,11,28,18,,1.51,0.82,1.27*08
$GPGSV,4,1,16,05,00,315,,07,54,310,42,08,67,161,45,09,48,232,41*76
$GPGSV,4,2,16,11,15,171,30,16,25,062,40,18,07,150,35,21,03,029,*7F
$GPGSV,4,3,16,23,27,189,30,26,00,073,,27,53,061,47,28,11,256,22*72
$GPGSV,4,4,16,30,28,304,28,46,23,237,,48,20,240,,51,35,213,39*7F
$GPGLL,4239.49122,N,08314.60395,W,192142.00,A,D*74
$GPRMC,192143.00,A,4239.49119,N,08314.60317,W,2.035,87.48,050418,,,D*4F
$GPVTG,87.48,T,,M,2.035,N,3.769,K,D*04
$GPGGA,192143.00,4239.49119,N,08314.60317,W,2,11,0.82,282.7,M,-34.9,M,,0000*62
$GPGSA,A,3,08,27,09,07,51,23,16,30,11,28,18,,1.51,0.82,1.27*08
$GPGSV,4,1,16,05,00,315,,07,55,310,40,08,67,161,46,09,48,232,43*74
$GPGSV,4,2,16,11,15,171,30,16,25,062,38,18,07,150,26,21,03,029,*72
$GPGSV,4,3,16,23,27,189,36,26,00,073,,27,53,061,45,28,11,256,22*76
$GPGSV,4,4,16,30,28,304,32,46,23,237,,48,20,240,,51,35,213,38*75
$GPGLL,4239.49119,N,08314.60317,W,192143.00,A,D*77
$GPRMC,192144.00,A,4239.49117,N,08314.60239,W,1.942,88.12,050418,,,D*41
$GPVTG,88.12,T,,M,1.942,N,3.596,K,D*0C
$GPGGA,192144.00,4239.49117,N,08314.60239,W,2,12,0.80,282.6,M,-34.9,M,,0000*66
$GPGSA,A,3,08,27,09,07,51,23,16,30,11,28,48,18,1.49,0.80,1.26*0E
$GPGSV,4,1,16,05,00,315,,07,55,310,41,08,67,160,42,09,48,232,41*72
$GPGSV,4,2,16,11,15,171,35,16,25,062,36,18,07,150,34,21,03,029,*7A
$GPGSV,4,3,16,23,27,189,30,26,00,073,,27,53,061,43,28,11,256,23*77
$GPGSV,4,4,16,30,28,304,27,46,23,237,,48,20,240,29,51,35,213,39*7B
$GPGLL,4239.49117,N,08314.60239,W,192144.00,A,D*73
$GPRMC,192145.00,A,4239.49121,N,08314.60166,W,2.086,90.59,050418,,,D*48
$GPVTG,90.59,T,,M,2.086,N,3.862,K,D*0E
$GPGGA,192145.00,4239.49121,N,08314.60166,W,2,12,0.80,282.5,M,-34.9,M,,0000*68
$GPGSA,A,3,08,27,09,07,51,23,16,30,11,28,48,18,1.49,0.80,1.26*0E
$GPGSV,4,1,16,05,00,315,,07,55,310,41,08,67,160,44,09,47,231,42*7B
$GPGSV,4,2,16,11,15,171,31,16,25,062,37,18,07,150,28,21,03,029,*72
$GPGSV,4,3,16,23,27,189,36,26,00,073,,27,53,061,45,28,11,256,25*71
$GPGSV,4,4,16,30,28,304,32,46,23,237,,48,20,240,33,51,35,213,39*74
$GPGLL,4239.49121,N,08314.60166,W,192145.00,A,D*7E
$GPRMC,192146.00,A,4239.49118,N,08314.60081,W,2.220,89.41,050418,,,D*46
$GPVTG,89.41,T,,M,2.220,N,4.111,K,D*0B
$GPGGA,192146.00,4239.49118,N,08314.60081,W,2,12,0.80,282.5,M,-34.9,M,,0000*69
$GPGSA,A,3,08,27,09,07,51,23,16,30,11,28,48,18,1.49,0.80,1.26*0E
$GPGSV,4,1,16,05,00,315,,07,55,310,42,08,67,160,44,09,47,231,42*78
$GPGSV,4,2,16,11,15,171,37,16,25,062,37,18,07,150,32,21,03,029,*7F
$GPGSV,4,3,16,23,27,189,30,26,00,073,,27,53,061,47,28,11,256,25*75
$GPGSV,4,4,16,30,28,304,28,46,23,237,,48,20,240,33,51,35,213,39*7F
$GPGLL,4239.49118,N,08314.60081,W,192146.00,A,D*7F
$GPRMC,192147.00,A,4239.49118,N,08314.59998,W,2.204,89.27,050418,,,D*4A
$GPVTG,89.27,T,,M,2.204,N,4.081,K,D*05
$GPGGA,192147.00,4239.49118,N,08314.59998,W,2,12,0.80,282.3,M,-34.9,M,,0000*65
$GPGSA,A,3,08,27,09,07,51,23,16,30,11,28,48,18,1.49,0.80,1.26*0E
$GPGSV,4,1,16,05,00,315,,07,55,310,42,08,67,160,45,09,47,231,44*7F
$GPGSV,4,2,16,11,15,171,38,16,25,062,40,18,07,150,38,21,03,029,*7A
$GPGSV,4,3,16,23,27,189,36,26,00,073,,27,53,061,45,28,11,256,27*73
$GPGSV,4,4,16,30,28,304,27,46,23,237,,48,20,240,27,51,35,213,39*75
$GPGLL,4239.49118,N,08314.59998,W,192147.00,A,D*75
$GPRMC,192148.00,A,4239.49121,N,08314.59927,W,1.833,90.06,050418,,,D*4D
$GPVTG,90.06,T,,M,1.833,N,3.395,K,D*02
$GPGGA,192148.00,4239.49121,N,08314.59927,W,2,12,0.80,282.2,M,-34.9,M,,0000*65
$GPGSA,A,3,08,27,09,07,51,23,16,30,11,28,48,18,1.49,0.80,1.26*0E
$GPGSV,4,1,16,05,00,315,,07,55,310,40,08,67,160,43,09,47,231,44*7B
$GPGSV,4,2,16,11,15,171,33,16,25,062,36,18,07,150,33,21,03,029,*7B
$GPGSV,4,3,16,23,27,189,38,26,00,073,,27,53,061,44,28,11,256,27*7C
$GPGSV,4,4,16,30,28,304,32,46,23,237,,48,20,240,26,51,35,213,38*71
$GPGLL,4239.49121,N,08314.59927,W,192148.00,A,D*74
$GPRMC,192149.00,A,4239.49117,N,08314.59856,W,2.044,92.95,050418,,,D*4D
$GPVTG,92.95,T,,M,2.044,N,3.786,K,D*07
$GPGGA,192149.00,4239.49117,N,08314.59856,W,2,11,0.82,282.2,M,-34.9,M,,0000*67
$GPGSA,A,3,08,27,09,07,51,23,16,30,11,28,18,,1.51,0.82,1.27*08
$GPGSV,4,1,16,05,00,315,,07,55,310,41,08,67,160,45,09,47,231,44*7C
$GPGSV,4,2,16,11,15,171,36,16,25,062,38,18,07,150,32,21,03,029,*71
$GPGSV,4,3,16,23,27,189,40,26,00,073,,27,53,061,43,28,11,256,32*70
$GPGSV,4,4,16,30,28,304,33,46,23,237,,48,20,240,,51,35,213,38*74
$GPGLL,4239.49117,N,08314.59856,W,192149.00,A,D*77
$GPRMC,192150.00,A,4239.49111,N,08314.59780,W,1.972,93.64,050418,,,D*47
$GPVTG,93.64,T,,M,1.972,N,3.652,K,D*0F
$GPGGA,192150.00,4239.49111,N,08314.59780,W,2,11,0.82,282.0,M,-34.9,M,,0000*6F
$GPGSA,A,3,08,27,09,07,51,23,16,30,11,28,18,,1.51,0.82,1.27*08
$GPGSV,4,1,16,05,00,315,,07,55,310,40,08,67,160,44,09,47,231,41*79
$GPGSV,4,2,16,11,15,171,29,16,25,062,36,18,07,150,31,21,03,029,*72
$GPGSV,4,3,16,23,27,189,39,26,00,073,,27,53,061,46,28,11,256,27*7F
$GPGSV,4,4,16,30,28,304,32,46,23,237,,48,20,240,27,51,35,213,38*70
$GPGLL,4239.49111,N,08314.59780,W,192150.00,A,D*7D
$GPRMC,192151.00,A,4239.49110,N,08314.59706,W,1.943,89.50,050418,,,D*47
$GPVTG,89.50,T,,M,1.943,N,3.599,K,D*05
$GPGGA,192151.00,4239.49110,N,08314.59706,W,2,12,0.80,282.2,M,-34.9,M,,0000*62
$GPGSA,A,3,08,27,09,07,51,23,16,30,11,28,48,18,1.49,0.80,1.26*0E
$GPGSV,4,1,16,05,00,315,,07,55,310,40,08,67,160,45,09,47,231,43*7A
$GPGSV,4,2,16,11,15,171,40,16,25,062,36,18,07,150,30,21,03,029,*7C
$GPGSV,4,3,16,23,27,189,41,26,00,073,,27,53,061,44,28,11,256,28*7D
$GPGSV,4,4,16,30,28,304,27,46,23,237,,48,20,240,35,51,35,213,35*7A
$GPGLL,4239.49110,N,08314.59706,W,192151.00,A,D*73
$GPRMC,192152.00,A,4239.49116,N,08314.59633,W,1.958,86.61,050418,,,D*42
$GPVTG,86.61,T,,M,1.958,N,3.627,K,D*04
$GPGGA,192152.00,4239.49116,N,08314.59633,W,2,12,0.80,282.1,M,-34.9,M,,0000*63
$GPGSA,A,3,08,27,09,07,51,23,16,30,11,28,48,18,1.49,0.80,1.26*0E
$GPGSV,4,1,16,05,00,315,,07,55,310,38,08,67,160,44,09,47,231,43*74
$GPGSV,4,2,16,11,15,171,38,16,25,062,38,18,07,150,30,21,03,029,*7D
$GPGSV,4,3,16,23,27,189,40,26,00,073,,27,53,061,46,28,11,256,28*7E
$GPGSV,4,4,16,30,28,304,27,46,23,237,,48,20,240,32,51,35,213,33*7B
$GPGLL,4239.49116,N,08314.59633,W,192152.00,A,D*71
$GPRMC,192153.00,A,4239.49116,N,08314.59563,W,1.697,86.98,050418,,,D*4F
$GPVTG,86.98,T,,M,1.697,N,3.143,K,D*0B
$GPGGA,192153.00,4239.49116,N,08314.59563,W,2,11,0.82,281.9,M,-34.9,M,,0000*6E
$GPGSA,A,3,08,27,09,07,51,23,16,30,11,28,18,,1.51,0.82,1.27*08
$GPGSV,4,1,16,05,00,315,,07,55,310,43,08,67,160,43,09,47,231,41*7D
$GPGSV,4,2,16,11,15,171,39,16,25,062,38,18,07,150,25,21,03,029,*78
$GPGSV,4,3,16,23,27,189,42,26,00,073,,27,53,061,46,28,11,256,26*72
$GPGSV,4,4,16,30,28,304,26,46,23,237,,48,20,240,,51,35,213,36*7E
$GPGLL,4239.49116,N,08314.59563,W,192153.00,A,D*76
$GPRMC,192154.00,A,4239.49118,N,08314.59486,W,2.088,85.88,050418,,,D*45
$GPVTG,85.88,T,,M,2.088,N,3.867,K,D*0D
$GPGGA,192154.00,4239.49118,N,08314.59486,W,2,12,0.80,281.9,M,-34.9,M,,0000*6C
$GPGSA,A,3,08,27,09,07,51,23,16,30,11,28,48,18,1.49,0.80,1.26*0E
$GPGSV,4,1,16,05,00,315,,07,55,310,43,08,67,160,42,09,47,231,44*79
$GPGSV,4,2,16,11,15,171,36,16,25,062,38,18,08,150,26,21,03,029,*7B
$GPGSV,4,3,16,23,27,189,36,26,00,073,,27,53,061,46,28,11,256,27*70
$GPGSV,4,4,16,30,28,304,27,46,23,237,,48,20,240,30,51,35,213,40*7D
$GPGLL,4239.49118,N,08314.59486,W,192154.00,A,D*75
$GPRMC,192155.00,A,4239.49118,N,08314.59413,W,1.838,87.48,050418,,,D*46
$GPVTG,87.48,T,,M,1.838,N,3.403,K,D*0D
$GPGGA,192155.00,4239.49118,N,08314.59413,W,2,12,0.80,281.8,M,-34.9,M,,0000*60
$GPGSA,A,3,08,27,09,07,51,23,16,30,11,28,48,18,1.49,0.80,1.26*0E
$GPGSV,4,1,16,05,00,315,,07,55,310,41,08,67,160,44,09,47,231,42*7B
$GPGSV,4,2,16,11,15,171,40,16,25,062,36,18,08,150,27,21,03,029,*75
$GPGSV,4,3,16,23,27,189,43,26,00,073,,27,53,061,46,28,11,256,28*7D
$GPGSV,4,4,16,30,28,304,27,46,23,237,,48,20,240,32,51,35,213,37*7F
$GPGLL,4239.49118,N,08314.59413,W,192155.00,A,D*78
$GPRMC,192156.00,A,4239.49115,N,08314.59332,W,2.182,89.14,050418,,,D*40
$GPVTG,89.14,T,,M,2.182,N,4.042,K,D*07
$GPGGA,192156.00,4239.49115,N,08314.59332,W,2,12,0.80,281.9,M,-34.9,M,,0000*6B
$GPGSA,A,3,08,27,09,07,51,23,16,30,11,28,48,18,1.49,0.80,1.26*0E
$GPGSV,4,1,16,05,00,315,,07,55,310,39,08,67,160,46,09,47,231,42*76
$GPGSV,4,2,16,11,15,171,36,16,25,062,38,18,08,150,27,21,03,029,*7A
$GPGSV,4,3,16,23,27,189,42,26,00,073,,27,53,061,44,28,11,256,28*7E
$GPGSV,4,4,16,30,28,304,31,46,23,237,,48,20,240,35,51,35,213,41*7E
$GPGLL,4239.49115,N,08314.59332,W,192156.00,A,D*72
$GPRMC,192157.00,A,4239.49116,N,08314.59253,W,2.047,88.39,050418,,,D*42
$GPVTG,88.39,T,,M,2.047,N,3.791,K,D*0F
$GPGGA,192157.00,4239.49116,N,08314.59253,W,2,12,0.80,281.9,M,-34.9,M,,0000*6F
$GPGSA,A,3,08,27,09,07,51,23,16,30,11,28,48,18,1.49,0.80,1.26*0E
$GPGSV,4,1,16,05,00,315,,07,55,310,42,08,67,160,45,09,47,231,43*78
$GPGSV,4,2,16,11,15,171,40,16,25,062,36,18,08,150,28,21,03,029,*7A
$GPGSV,4,3,16,23,27,189,36,26,00,073,,27,53,061,46,28,11,256,27*70
$GPGSV,4,4,16,30,28,304,31,46,23,237,,48,20,240,33,51,35,213,41*78
$GPGLL,4239.49116,N,08314.59253,W,192157.00,A,D*76
$GPRMC,192158.00,A,4239.49121,N,08314.59182,W,1.903,85.31,050418,,,D*49
$GPVTG,85.31,T,,M,1.903,N,3.525,K,D*0D
$GPGGA,192158.00,4239.49121,N,08314.59182,W,2,12,0.80,281.7,M,-34.9,M,,0000*65
$GPGSA,A,3,08,27,09,07,51,23,16,30,11,28,48,18,1.49,0.80,1.26*0E
$GPGSV,4,1,16,05,00,315,,07,55,310,42,08,67,160,44,09,47,231,42*78
$GPGSV,4,2,16,11,15,171,40,16,25,062,36,18,08,150,27,21,03,029,*75
$GPGSV,4,3,16,23,27,189,42,26,00,073,,27,53,061,45,28,11,256,27*70
$GPGSV,4,4,16,30,28,304,25,46,23,237,,48,20,240,35,51,35,213,39*74
$GPGLL,4239.49121,N,08314.59182,W,192158.00,A,D*72
$GPRMC,192159.00,A,4239.49125,N,08314.59127,W,1.294,85.00,050418,,,D*44
$GPVTG,85.00,T,,M,1.294,N,2.397,K,D*04
$GPGGA,192159.00,4239.49125,N,08314.59127,W,2,12,0.85,281.4,M,-34.9,M,,0000*69
$GPGSA,A,3,08,27,09,07,51,23,16,30,11,28,48,18,1.63,0.85,1.39*0D
$GPGSV,4,1,16,05,00,315,,07,55,310,39,08,67,160,43,09,47,231,39*7F
$GPGSV,4,2,16,11,15,171,39,16,25,062,28,18,08,150,27,21,03,029,*74
$GPGSV,4,3,16,23,26,189,42,26,00,073,,27,53,061,42,28,11,256,28*79
$GPGSV,4,4,16,30,28,304,25,46,23,237,,48,20,240,33,51,35,213,39*72
$GPGLL,4239.49125,N,08314.59127,W,192159.00,A,D*78
$GPRMC,192200.00,A,4239.49124,N,08314.59054,W,2.053,93.27,050418,,,D*47
$GPVTG,93.27,T,,M,2.053,N,3.802,K,D*0A
$GPGGA,192200.00,4239.49124,N,08314.59054,W,2,12,0.80,281.2,M,-34.9,M,,0000*61
$GPGSA,A,3,08,27,09,07,51,23,16,30,11,28,48,18,1.49,0.80,1.26*0E
$GPGSV,4,1,16,05,00,315,,07,55,310,40,08,67,160,44,09,47,231,44*7C
$GPGSV,4,2,16,11,15,171,29,16,25,062,39,18,08,150,31,21,03,029,*72
$GPGSV,4,3,16,23,26,189,43,26,00,073,,27,53,061,45,28,11,256,29*7E
$GPGSV,4,4,16,30,28,304,26,46,23,237,,48,20,240,31,51,35,213,40*7D
$GPGLL,4239.49124,N,08314.59054,W,192200.00,A,D*73
$GPRMC,192201.00,A,4239.49120,N,08314.58972,W,2.298,93.50,050418,,,D*4B
$GPVTG,93.50,T,,M,2.298,N,4.256,K,D*03
$GPGGA,192201.00,4239.49120,N,08314.58972,W,2,12,0.80,281.2,M,-34.9,M,,0000*68
$GPGSA,A,3,08,27,09,07,51,23,16,30,11,28,48,18,1.49,0.80,1.26*0E
$GPGSV,4,1,16,05,00,315,,07,55,310,41,08,67,160,44,09,47,231,44*7D
$GPGSV,4,2,16,11,15,171,21,16,25,062,41,18,08,150,25,21,03,029,*70
$GPGSV,4,3,16,23,26,189,36,26,00,073,,27,53,061,46,28,11,256,32*75
$GPGSV,4,4,16,30,28,304,39,46,23,237,,48,20,240,30,51,35,213,36*73
$GPGLL,4239.49120,N,08314.58972,W,192201.00,A,D*7A
$GPRMC,192202.00,A,4239.49114,N,08314.58882,W,2.365,92.33,050418,,,D*46
$GPVTG,92.33,T,,M,2.365,N,4.379,K,D*08
$GPGGA,192202.00,4239.49114,N,08314.58882,W,2,12,0.80,281.2,M,-34.9,M,,0000*62
$GPGSA,A,3,08,27,09,07,51,23,16,30,11,28,48,18,1.49,0.80,1.26*0E
$GPGSV,4,1,16,05,00,315,,07,55,310,35,08,67,160,41,09,47,231,40*7F
$GPGSV,4,2,16,11,15,171,33,16,25,062,31,18,08,150,26,21,03,029,*77
$GPGSV,4,3,16,23,26,189,37,26,00,074,,27,53,061,39,28,11,256,26*7E
$GPGSV,4,4,16,30,28,304,24,46,23,237,,48,20,240,28,51,35,213,39*79
$GPGLL,4239.49114,N,08314.58882,W,192202.00,A,D*70
$GPRMC,192203.00,A,4239.49112,N,08314.58796,W,2.239,88.82,050418,,,D*42
$GPVTG,88.82,T,,M,2.239,N,4.147,K,D*0E
$GPGGA,192203.00,4239.49112,N,08314.58796,W,2,12,0.80,281.5,M,-34.9,M,,0000*68
$GPGSA,A,3,08,27,09,07,51,23,16,30,11,28,48,18,1.49,0.80,1.26*0E
$GPGSV,4,1,16,05,00,315,,07,55,310,38,08,67,160,44,09,47,231,43*74
$GPGSV,4,2,16,11,15,171,39,16,25,062,27,18,08,150,28,21,03,029,*74
$GPGSV,4,3,16,23,26,189,39,26,00,074,,27,53,061,42,28,11,256,24*7E
$GPGSV,4,4,16,30,28,304,30,46,23,237,,48,20,240,30,51,35,213,40*7B
$GPGLL,4239.49112,N,08314.58796,W,192203.00,A,D*7D
$GPRMC,192204.00,A,4239.49118,N,08314.58713,W,1.996,86.81,050418,,,D*42
$GPVTG,86.81,T,,M,1.996,N,3.697,K,D*03
$GPGGA,192204.00,4239.49118,N,08314.58713,W,2,12,0.80,280.9,M,-34.9,M,,0000*65
$GPGSA,A,3,08,27,09,07,51,23,16,30,11,28,48,18,1.49,0.80,1.26*0E
$GPGSV,4,1,16,05,00,315,,07,55,310,40,08,67,160,42,09,47,231,41*7F
$GPGSV,4,2,16,11,15,171,35,16,25,062,35,18,08,150,28,21,03,029,*7B
$GPGSV,4,3,16,23,26,189,35,26,00,074,,27,53,061,44,28,11,256,24*74
$GPGSV,4,4,16,30,28,304,29,46,23,237,,48,20,240,28,51,35,213,38*75
$GPGLL,4239.49118,N,08314.58713,W,192204.00,A,D*7D
$GPRMC,192205.00,A,4239.49110,N,08314.58624,W,2.375,91.66,050418,,,D*45
$GPVTG,91.66,T,,M,2.375,N,4.399,K,D*04
$GPGGA,192205.00,4239.49110,N,08314.58624,W,2,12,0.80,280.8,M,-34.9,M,,0000*68
$GPGSA,A,3,08,27,09,07,51,23,16,30,11,28,48,18,1.49,0.80,1.26*0E
$GPGSV,4,1,16,05,00,315,,07,55,310,38,08,67,160,44,09,47,231,43*74
$GPGSV,4,2,16,11,15,171,37,16,25,062,35,18,08,150,32,21,03,029,*72
$GPGSV,4,3,16,23,26,189,40,26,00,074,,27,53,061,44,28,11,256,26*74
$GPGSV,4,4,16,30,28,304,29,46,23,237,,48,20,240,27,51,35,213,39*7B
$GPGLL,4239.49110,N,08314.58624,W,192205.00,A,D*71
$GPRMC,192206.00,A,4239.49107,N,08314.58543,W,2.158,93.71,050418,,,D*4B
$GPVTG,93.71,T,,M,2.158,N,3.996,K,D*0F
$GPGGA,192206.00,4239.49107,N,08314.58543,W,2,12,0.80,280.9,M,-34.9,M,,0000*6E
$GPGSA,A,3,08,27,09,07,51,23,16,30,11,28,48,18,1.49,0.80,1.26*0E
$GPGSV,4,1,16,05,00,315,,07,55,310,40,08,67,160,45,09,47,231,43*7A
$GPGSV,4,2,16,11,15,171,36,16,25,062,35,18,08,150,32,21,03,029,*73
$GPGSV,4,3,16,23,26,189,44,26,00,074,,27,53,061,44,28,11,256,26*70
$GPGSV,4,4,16,30,28,304,29,46,23,237,,48,20,240,28,51,35,213,39*74
$GPGLL,4239.49107,N,08314.58543,W,192206.00,A,D*76
$GPRMC,192207.00,A,4239.49100,N,08314.58452,W,2.473,94.08,050418,,,D*49
$GPVTG,94.08,T,,M,2.473,N,4.580,K,D*06
$GPGGA,192207.00,4239.49100,N,08314.58452,W,2,11,0.82,280.8,M,-34.9,M,,0000*69
$GPGSA,A,3,08,27,09,07,51,23,16,30,11,28,18,,1.52,0.82,1.27*0B
$GPGSV,4,1,16,05,00,315,,07,55,310,41,08,67,160,44,09,47,231,43*7A
$GPGSV,4,2,16,11,15,171,34,16,25,062,37,18,08,150,32,21,03,029,22*73
$GPGSV,4,3,16,23,26,189,42,26,00,074,,27,53,061,45,28,11,256,31*71
$GPGSV,4,4,16,30,28,304,29,46,23,237,,48,20,240,,51,35,213,41*71
$GPGLL,4239.49100,N,08314.58452,W,192207.00,A,D*71
$GPRMC,192208.00,A,4239.49101,N,08314.58365,W,2.167,90.34,050418,,,D*4F
$GPVTG,90.34,T,,M,2.167,N,4.014,K,D*05
$GPGGA,192208.00,4239.49101,N,08314.58365,W,2,11,0.82,280.8,M,-34.9,M,,0000*64
$GPGSA,A,3,08,27,09,07,51,23,16,30,11,28,18,,1.52,0.82,1.27*0B
$GPGSV,4,1,16,05,00,315,,07,55,310,42,08,67,160,44,09,47,231,44*7E
$GPGSV,4,2,16,11,15,171,37,16,25,062,32,18,08,150,24,21,03,029,21*71
$GPGSV,4,3,16,23,26,189,39,26,00,074,,27,53,061,44,28,11,256,26*7A
$GPGSV,4,4,16,30,28,304,28,46,23,237,,48,20,240,,51,35,213,35*73
$GPGLL,4239.49101,N,08314.58365,W,192208.00,A,D*7C
$GPRMC,192209.00,A,4239.49101,N,08314.58278,W,2.240,88.82,050418,,,D*41
$GPVTG,88.82,T,,M,2.240,N,4.149,K,D*0E
$GPGGA,192209.00,4239.49101,N,08314.58278,W,2,12,0.82,280.9,M,-34.9,M,,0000*6A
$GPGSA,A,3,08,27,09,07,51,23,16,30,11,28,48,18,1.52,0.82,1.27*07
$GPGSV,4,1,16,05,00,315,,07,55,310,39,08,67,160,42,09,47,231,44*74
$GPGSV,4,2,16,11,15,171,37,16,25,062,32,18,08,150,25,21,03,029,22*73
$GPGSV,4,3,16,23,26,189,34,26,00,074,,27,53,061,43,28,11,256,27*71
$GPGSV,4,4,16,30,28,304,33,46,23,237,,48,20,240,29,51,35,213,38*7F
$GPGLL,4239.49101,N,08314.58278,W,192209.00,A,D*70
$GPRMC,192210.00,A,4239.49095,N,08314.58184,W,2.455,89.86,050418,,,D*42
$GPVTG,89.86,T,,M,2.455,N,4.547,K,D*03
$GPGGA,192210.00,4239.49095,N,08314.58184,W,2,11,0.82,281.3,M,-34.9,M,,0000*66
$GPGSA,A,3,08,27,09,07,51,23,16,30,11,28,18,,1.52,0.82,1.27*0B
$GPGSV,4,1,16,05,00,315,,07,55,310,42,08,67,160,44,09,47,231,42*78
$GPGSV,4,2,16,11,15,171,33,16,25,062,36,18,08,150,26,21,03,029,21*73
$GPGSV,4,3,16,23,26,189,37,26,00,074,,27,53,061,44,28,11,256,27*75
$GPGSV,4,4,16,30,28,304,27,46,23,237,,48,20,240,,51,35,213,40*7E
$GPGLL,4239.49095,N,08314.58184,W,192210.00,A,D*74
$GPRMC,192211.00,A,4239.49096,N,08314.58087,W,2.509,89.13,050418,,,D*46
$GPVTG,89.13,T,,M,2.509,N,4.647,K,D*04
$GPGGA,192211.00,4239.49096,N,08314.58087,W,2,11,0.82,281.1,M,-34.9,M,,0000*64
$GPGSA,A,3,08,27,09,07,51,23,16,30,11,28,18,,1.52,0.82,1.27*0B
$GPGSV,4,1,16,05,00,315,,07,55,310,41,08,67,160,44,09,47,231,44*7D
$GPGSV,4,2,16,11,15,171,34,16,25,062,33,18,08,150,34,21,03,029,23*70
$GPGSV,4,3,16,23,26,189,41,26,00,074,,27,53,061,47,28,11,256,29*79
$GPGSV,4,4,16,30,28,304,29,46,23,237,,48,20,240,28,51,35,213,40*7A
$GPGLL,4239.49096,N,08314.58087,W,192211.00,A,D*74
$GPRMC,192212.00,A,4239.49090,N,08314.57991,W,2.407,90.53,050418,,,D*41
$GPVTG,90.53,T,,M,2.407,N,4.457,K,D*04
$GPGGA,192212.00,4239.49090,N,08314.57991,W,2,12,0.80,281.2,M,-34.9,M,,0000*62
$GPGSA,A,3,08,27,09,07,51,23,16,30,11,28,48,18,1.49,0.80,1.26*0E
$GPGSV,4,1,16,05,00,315,,07,55,310,39,08,67,160,43,09,47,231,44*75
$GPGSV,4,2,16,11,15,171,37,16,25,062,32,18,08,150,37,21,03,029,22*70
$GPGSV,4,3,16,23,26,189,39,26,00,074,,27,53,061,44,28,11,256,29*75
$GPGSV,4,4,16,30,28,304,22,46,23,237,,48,20,240,33,51,35,213,39*75
$GPGLL,4239.49090,N,08314.57991,W,192212.00,A,D*70
$GPRMC,192213.00,A,4239.49082,N,08314.57896,W,2.411,93.36,050418,,,D*42
$GPVTG,93.36,T,,M,2.411,N,4.465,K,D*02
$GPGGA,192213.00,4239.49082,N,08314.57896,W,2,12,0.82,281.2,M,-34.9,M,,0000*64
$GPGSA,A,3,08,27,09,07,51,23,16,30,11,28,48,18,1.52,0.82,1.27*07
$GPGSV,4,1,16,05,00,315,,07,55,310,40,08,67,160,37,09,47,231,40*7C
$GPGSV,4,2,16,11,15,171,39,16,25,062,38,18,08,150,27,21,03,029,23*74
$GPGSV,4,3,16,23,26,189,37,26,00,074,,27,53,061,46,28,11,256,29*79
$GPGSV,4,4,16,30,28,304,29,46,23,237,,48,20,240,30,51,35,213,42*71
$GPGLL,4239.49082,N,08314.57896,W,192213.00,A,D*74
$GPRMC,192214.00,A,4239.49081,N,08314.57820,W,1.873,94.07,050418,,,D*45
$GPVTG,94.07,T,,M,1.873,N,3.469,K,D*07
$GPGGA,192214.00,4239.49081,N,08314.57820,W,2,11,0.82,281.2,M,-34.9,M,,0000*6E
$GPGSA,A,3,08,27,09,07,51,23,16,30,11,28,18,,1.52,0.82,1.27*0B
$GPGSV,4,1,16,05,00,315,,07,55,310,33,08,67,160,40,09,47,231,40*78
$GPGSV,4,2,16,11,15,171,30,16,25,062,38,18,08,150,27,21,03,029,22*7C
$GPGSV,4,3,16,23,26,189,40,26,00,074,,27,53,061,46,28,11,256,20*70
$GPGSV,4,4,16,30,28,304,33,46,23,237,,48,20,240,,51,35,213,41*7A
$GPGLL,4239.49081,N,08314.57820,W,192214.00,A,D*7D
$GPRMC,192215.00,A,4239.49084,N,08314.57751,W,1.807,86.60,050418,,,D*49
$GPVTG,86.60,T,,M,1.807,N,3.346,K,D*0C
$GPGGA,192215.00,4239.49084,N,08314.57751,W,2,12,0.80,281.4,M,-34.9,M,,0000*64
$GPGSA,A,3,08,27,09,07,51,23,16,30,11,28,48,18,1.49,0.80,1.26*0E
$GPGSV,4,1,16,05,00,315,,07,55,310,36,08,67,160,42,09,47,231,43*7C
$GPGSV,4,2,16,11,15,171,37,16,25,062,37,18,08,150,35,21,03,029,24*71
$GPGSV,4,3,16,23,26,189,33,26,00,074,,27,53,061,44,28,11,256,29*7F
$GPGSV,4,4,16,30,28,304,30,46,23,237,,48,20,240,36,51,35,213,39*73
$GPGLL,4239.49084,N,08314.57751,W,192215.00,A,D*70
$GPRMC,192216.00,A,4239.49091,N,08314.57670,W,2.301,84.62,050418,,,D*42
$GPVTG,84.62,T,,M,2.301,N,4.261,K,D*01
$GPGGA,192216.00,4239.49091,N,08314.57670,W,2,12,0.80,281.5,M,-34.9,M,,0000*60
$GPGSA,A,3,08,27,09,07,51,23,16,30,11,28,48,18,1.49,0.80,1.26*0E
$GPGSV,4,1,16,05,00,315,,07,55,310,36,08,67,160,44,09,47,231,39*77
$GPGSV,4,2,16,11,15,171,33,16,25,062,35,18,08,150,34,21,03,029,24*76
$GPGSV,4,3,16,23,26,189,43,26,00,074,,27,53,061,42,28,11,256,28*7F
$GPGSV,4,4,16,30,28,304,23,46,23,237,,48,20,240,29,51,35,213,31*77
$GPGLL,4239.49091,N,08314.57670,W,192216.00,A,D*75
$GPRMC,192217.00,A,4239.49095,N,08314.57581,W,2.264,86.08,050418,,,D*46
$GPVTG,86.08,T,,M,2.264,N,4.193,K,D*03
$GPGGA,192217.00,4239.49095,N,08314.57581,W,2,12,0.80,281.5,M,-34.9,M,,0000*68
$GPGSA,A,3,08,27,09,07,51,23,16,30,11,28,48,18,1.49,0.80,1.26*0E
$GPGSV,4,1,16,05,00,315,,07,55,310,38,08,67,160,44,09,47,231,39*79
$GPGSV,4,2,16,11,15,171,35,16,25,062,37,18,08,150,36,21,03,029,23*77
$GPGSV,4,3,16,23,26,189,43,26,00,074,,27,53,061,46,28,11,256,26*75
$GPGSV,4,4,16,30,28,304,31,46,23,237,,48,20,240,29,51,35,213,39*7C
$GPGLL,4239.49095,N,08314.57581,W,192217.00,A,D*7D
$GPRMC,192218.00,A,4239.49102,N,08314.57496,W,2.201,85.18,050418,,,D*40
$GPVTG,85.18,T,,M,2.201,N,4.076,K,D*08
$GPGGA,192218.00,4239.49102,N,08314.57496,W,2,11,0.91,281.4,M,-34.9,M,,0000*6D
$GPGSA,A,3,08,27,09,07,51,23,16,11,28,48,18,,1.59,0.91,1.31*0A
$GPGSV,4,1,16,05,00,315,,07,55,310,38,08,67,160,45,09,47,231,37*76
$GPGSV,4,2,16,11,15,171,40,16,25,062,38,18,08,150,37,21,03,029,20*78
$GPGSV,4,3,16,23,26,189,41,26,00,074,,27,53,061,45,28,11,256,26*74
$GPGSV,4,4,16,30,28,304,,46,23,237,,48,20,240,29,51,35,213,42*72
$GPGLL,4239.49102,N,08314.57496,W,192218.00,A,D*7A
$GPRMC,192219.00,A,4239.49102,N,08314.57405,W,2.393,88.23,050418,,,D*44
$GPVTG,88.23,T,,M,2.393,N,4.432,K,D*03
$GPGGA,192219.00,4239.49102,N,08314.57405,W,2,11,0.91,281.3,M,-34.9,M,,0000*61
$GPGSA,A,3,08,27,09,07,51,23,16,11,28,48,18,,1.59,0.91,1.31*0A
$GPGSV,4,1,16,05,00,315,,07,55,310,37,08,67,160,45,09,47,231,42*7B
$GPGSV,4,2,16,11,15,171,37,16,25,062,35,18,08,150,25,21,03,029,21*77
$GPGSV,4,3,16,23,26,189,39,26,00,074,,27,53,061,41,28,11,256,26*7F
$GPGSV,4,4,16,30,28,304,25,46,23,237,,48,20,240,30,51,35,213,38*70
$GPGLL,4239.49102,N,08314.57405,W,192219.00,A,D*71
$GPRMC,192220.00,A,4239.49100,N,08314.57311,W,2.402,88.81,050418,,,D*49
$GPVTG,88.81,T,,M,2.402,N,4.448,K,D*09
$GPGGA,192220.00,4239.49100,N,08314.57311,W,2,12,0.85,281.1,M,-34.9,M,,0000*6F
$GPGSA,A,3,08,27,09,07,51,23,16,30,11,28,48,18,1.63,0.85,1.39*0D
$GPGSV,4,1,16,05,00,315,,07,55,310,38,08,67,160,44,09,47,231,45*72
$GPGSV,4,2,16,11,15,171,35,16,25,062,32,18,08,150,24,21,03,029,20*72
$GPGSV,4,3,16,23,26,189,42,26,00,074,,27,53,061,43,28,11,256,26*71
$GPGSV,4,4,16,30,28,304,26,46,23,237,,48,20,240,33,51,35,213,42*7D
$GPGLL,4239.49100,N,08314.57311,W,192220.00,A,D*7B
$GPRMC,192221.00,A,4239.49097,N,08314.57212,W,2.558,90.15,050418,,,D*4F
$GPVTG,90.15,T,,M,2.558,N,4.737,K,D*08
$GPGGA,192221.00,4239.49097,N,08314.57212,W,2,12,0.80,281.0,M,-34.9,M,,0000*67
$GPGSA,A,3,08,27,09,07,51,23,16,30,11,28,48,18,1.49,0.80,1.26*0E
$GPGSV,4,1,16,05,00,315,,07,55,310,38,08,67,160,45,09,47,231,46*70
$GPGSV,4,2,16,11,15,171,27,16,25,062,36,18,08,150,25,21,03,029,19*7E
$GPGSV,4,3,16,23,26,189,39,26,00,074,,27,53,061,44,28,11,256,25*79
$GPGSV,4,4,16,30,28,304,26,46,23,237,,48,20,240,30,51,35,213,44*78
$GPGLL,4239.49097,N,08314.57212,W,192221.00,A,D*77
$GPRMC,192222.00,A,4239.49089,N,08314.57109,W,2.527,90.85,050418,,,D*4B
$GPVTG,90.85,T,,M,2.527,N,4.681,K,D*05
$GPGGA,192222.00,4239.49089,N,08314.57109,W,2,12,0.80,280.9,M,-34.9,M,,0000*6A
$GPGSA,A,3,08,27,09,07,51,23,16,30,11,28,48,18,1.49,0.80,1.26*0E
$GPGSV,4,1,16,05,00,315,,07,55,310,40,08,67,160,43,09,47,231,44*7B
$GPGSV,4,2,16,11,15,171,35,16,25,062,37,18,08,150,34,21,03,029,17*72
$GPGSV,4,3,16,23,26,189,42,26,00,074,,27,53,061,44,28,11,256,25*75
$GPGSV,4,4,16,30,28,304,31,46,23,237,,48,20,240,30,51,35,213,40*7A
$GPGLL,4239.49089,N,08314.57109,W,192222.00,A,D*72
$GPRMC,192223.00,A,4239.49082,N,08314.57012,W,2.390,90.52,050418,,,D*4A
$GPVTG,90.52,T,,M,2.390,N,4.426,K,D*0A
$GPGGA,192223.00,4239.49082,N,08314.57012,W,2,12,0.80,280.9,M,-34.9,M,,0000*6B
$GPGSA,A,3,08,27,09,07,51,23,16,30,11,28,48,18,1.49,0.80,1.26*0E
$GPGSV,4,1,16,05,00,315,,07,55,310,36,08,67,160,43,09,47,231,43*7D
$GPGSV,4,2,16,11,15,171,38,16,25,062,36,18,08,150,33,21,03,029,17*79
$GPGSV,4,3,16,23,26,189,40,26,00,074,,27,53,061,43,28,11,256,22*77
$GPGSV,4,4,16,30,28,304,30,46,23,237,,48,20,240,34,51,35,213,39*71
$GPGLL,4239.49082,N,08314.57012,W,192223.00,A,D*73
$GPRMC,192224.00,A,4239.49078,N,08314.56921,W,2.337,91.34,050418,,,D*4C
$GPVTG,91.34,T,,M,2.337,N,4.328,K,D*0F
$GPGGA,192224.00,4239.49078,N,08314.56921,W,2,12,0.80,281.0,M,-34.9,M,,0000*69
$GPGSA,A,3,08,27,09,07,51,23,16,30,11,28,48,18,1.49,0.80,1.26*0E
$GPGSV,4,1,16,05,00,315,,07,55,310,35,08,67,160,42,09,47,231,42*7E
$GPGSV,4,2,16,11,15,171,38,16,25,062,38,18,08,150,29,21,03,029,18*73
$GPGSV,4,3,16,23,26,189,36,26,00,074,,27,53,061,43,28,11,256,20*74
$GPGSV,4,4,16,30,28,304,25,46,23,237,,48,20,240,31,51,35,213,41*7F
$GPGLL,4239.49078,N,08314.56921,W,192224.00,A,D*79
$GPRMC,192225.00,A,4239.49079,N,08314.56825,W,2.523,88.62,050418,,,D*41
$GPVTG,88.62,T,,M,2.523,N,4.673,K,D*0C
$GPGGA,192225.00,4239.49079,N,08314.56825,W,2,12,0.80,280.8,M,-34.9,M,,0000*65
$GPGSA,A,3,08,27,09,07,51,23,16,30,11,28,48,18,1.49,0.80,1.26*0E
$GPGSV,4,1,16,05,00,315,,07,55,310,35,08,67,160,44,09,47,231,45*7F
$GPGSV,4,2,16,11,15,171,40,16,25,062,38,18,08,150,28,21,03,029,18*7D
$GPGSV,4,3,16,23,26,189,39,26,00,074,,27,53,061,45,28,11,256,19*77
$GPGSV,4,4,16,30,28,304,27,46,23,237,,48,20,240,29,51,35,213,43*76
$GPGLL,4239.49079,N,08314.56825,W,192225.00,A,D*7C
$GPRMC,192226.00,A,4239.49087,N,08314.56733,W,2.385,85.38,050418,,,D*43
$GPVTG,85.38,T,,M,2.385,N,4.417,K,D*04
$GPGGA,192226.00,4239.49087,N,08314.56733,W,2,12,0.80,280.6,M,-34.9,M,,0000*61
$GPGSA,A,3,08,27,09,07,51,23,16,30,11,28,48,18,1.49,0.80,1.26*0E
$GPGSV,4,1,16,05,00,315,,07,55,310,38,08,67,160,44,09,47,231,45*72
$GPGSV,4,2,16,11,15,171,38,16,25,062,38,18,08,150,33,21,03,029,20*73
$GPGSV,4,3,16,23,26,189,41,26,00,074,,27,53,061,44,28,11,256,22*71
$GPGSV,4,4,16,30,28,304,27,46,23,237,,48,20,240,33,51,35,213,43*7D
$GPGLL,4239.49087,N,08314.56733,W,192226.00,A,D*76
$GPRMC,192227.00,A,4239.49095,N,08314.56646,W,2.310,84.45,050418,,,D*45
$GPVTG,84.45,T,,M,2.310,N,4.278,K,D*0C
$GPGGA,192227.00,4239.49095,N,08314.56646,W,2,12,0.80,280.6,M,-34.9,M,,0000*60
$GPGSA,A,3,08,27,09,07,51,23,16,30,11,28,48,18,1.49,0.80,1.26*0E
$GPGSV,4,1,16,05,00,315,,07,55,310,38,08,67,160,44,09,47,231,44*73
$GPGSV,4,2,16,11,15,171,36,16,25,062,38,18,08,150,36,21,03,029,20*78
$GPGSV,4,3,16,23,26,189,39,26,00,074,,27,53,061,44,28,11,256,26*7A
$GPGSV,4,4,16,30,28,304,26,46,23,237,,48,20,240,29,51,35,213,43*77
$GPGLL,4239.49095,N,08314.56646,W,192227.00,A,D*77
$GPRMC,192228.00,A,4239.49099,N,08314.56559,W,2.246,85.75,050418,,,D*4B
$GPVTG,85.75,T,,M,2.246,N,4.159,K,D*0C
$GPGGA,192228.00,4239.49099,N,08314.56559,W,2,12,0.80,280.4,M,-34.9,M,,0000*6C
$GPGSA,A,3,08,27,09,07,51,23,16,30,11,28,48,18,1.49,0.80,1.26*0E
$GPGSV,4,1,16,05,00,315,,07,55,310,36,08,68,160,42,09,47,231,41*71
$GPGSV,4,2,16,11,15,171,36,16,25,062,35,18,08,150,34,21,03,029,20*77
$GPGSV,4,3,16,23,26,189,39,26,00,074,,27,53,061,40,28,11,256,29*71
$GPGSV,4,4,16,30,28,304,25,46,23,237,,48,20,240,30,51,35,213,39*71
$GPGLL,4239.49099,N,08314.56559,W,192228.00,A,D*79
$GPRMC,192229.00,A,4239.49097,N,08314.56463,W,2.560,89.10,050418,,,D*40
$GPVTG,89.10,T,,M,2.560,N,4.741,K,D*0F
$GPGGA,192229.00,4239.49097,N,08314.56463,W,2,12,0.80,280.4,M,-34.9,M,,0000*6B
$GPGSA,A,3,08,27,09,07,51,23,16,30,11,28,48,18,1.49,0.80,1.26*0E
$GPGSV,4,1,16,05,00,315,,07,55,310,38,08,68,160,42,09,47,231,45*7B
$GPGSV,4,2,16,11,15,171,38,16,25,062,35,18,08,150,34,21,03,029,19*73
$GPGSV,4,3,16,23,26,189,41,26,00,074,,27,53,061,43,28,11,256,29*7D
$GPGSV,4,4,16,30,28,304,25,46,23,237,,48,20,240,32,51,35,213,39*73
$GPGLL,4239.49097,N,08314.56463,W,192229.00,A,D*7E
$GPRMC,192230.00,A,4239.49098,N,08314.56361,W,2.589,88.03,050418,,,D*46
$GPVTG,88.03,T,,M,2.589,N,4.794,K,D*03
$GPGGA,192230.00,4239.49098,N,08314.56361,W,2,12,0.80,280.2,M,-34.9,M,,0000*6F
$GPGSA,A,3,08,27,09,07,51,23,16,30,11,28,48,18,1.49,0.80,1.26*0E
$GPGSV,4,1,16,05,00,315,,07,55,310,36,08,68,160,40,09,47,231,42*70
$GPGSV,4,2,16,11,15,171,35,16,25,062,31,18,08,150,29,21,03,029,18*77
$GPGSV,4,3,16,23,26,189,43,26,00,074,,27,53,061,42,28,11,256,30*76
$GPGSV,4,4,16,30,28,304,25,46,23,237,,48,20,240,31,51,35,213,37*7E
$GPGLL,4239.49098,N,08314.56361,W,192230.00,A,D*7C
$GPRMC,192231.00,A,4239.49098,N,08314.56263,W,2.500,89.75,050418,,,D*45
$GPVTG,89.75,T,,M,2.500,N,4.631,K,D*0C
$GPGGA,192231.00,4239.49098,N,08314.56263,W,2,12,0.80,280.0,M,-34.9,M,,0000*6F
$GPGSA,A,3,08,27,09,07,51,23,16,30,11,28,48,18,1.49,0.80,1.26*0E
$GPGSV,4,1,16,05,00,315,,07,55,310,39,08,68,160,41,09,47,231,47*7B
$GPGSV,4,2,16,11,15,171,33,16,25,062,37,18,08,150,22,21,03,029,17*73
$GPGSV,4,3,16,23,26,189,44,26,00,074,,27,53,061,42,28,11,256,30*71
$GPGSV,4,4,16,30,28,304,29,46,23,237,,48,20,240,30,51,35,213,42*71
$GPGLL,4239.49098,N,08314.56263,W,192231.00,A,D*7E
$GPRMC,192232.00,A,4239.49101,N,08314.56176,W,2.091,87.84,050418,,,D*4D
$GPVTG,87.84,T,,M,2.091,N,3.872,K,D*0F
$GPGGA,192232.00,4239.49101,N,08314.56176,W,2,12,0.80,280.0,M,-34.9,M,,0000*6A
$GPGSA,A,3,08,27,09,07,51,23,16,30,11,28,48,18,1.49,0.80,1.26*0E
$GPGSV,4,1,16,05,00,315,,07,55,310,33,08,68,160,43,09,47,231,45*71
$GPGSV,4,2,16,11,15,171,20,16,25,062,37,18,08,150,23,21,03,029,17*70
$GPGSV,4,3,16,23,26,189,31,26,00,074,,27,53,061,43,28,11,256,23*70
$GPGSV,4,4,16,30,28,304,36,46,23,237,,48,20,240,31,51,35,213,39*72
$GPGLL,4239.49101,N,08314.56176,W,192232.00,A,D*7B
$GPRMC,192233.00,A,4239.49103,N,08314.56092,W,2.264,89.94,050418,,,D*42
$GPVTG,89.94,T,,M,2.264,N,4.193,K,D*09
$GPGGA,192233.00,4239.49103,N,08314.56092,W,2,11,0.82,280.1,M,-34.9,M,,0000*62
$GPGSA,A,3,08,27,09,07,51,23,16,30,11,28,18,,1.52,0.82,1.28*04
$GPGSV,4,1,16,05,00,315,,07,55,310,38,08,68,160,45,09,47,231,44*7D
$GPGSV,4,2,16,11,15,171,36,16,25,062,39,18,08,150,38,21,03,029,17*73
$GPGSV,4,3,16,23,26,189,44,26,00,074,,27,53,061,43,28,11,256,23*72
$GPGSV,4,4,16,30,28,304,22,46,23,237,,48,20,240,28,51,35,213,41*70
$GPGLL,4239.49103,N,08314.56092,W,192233.00,A,D*73
$GPRMC,192234.00,A,4239.49108,N,08314.56012,W,2.032,86.06,050418,,,D*43
$GPVTG,86.06,T,,M,2.032,N,3.764,K,D*05
$GPGGA,192234.00,4239.49108,N,08314.56012,W,2,12,0.80,279.9,M,-34.9,M,,0000*69
$GPGSA,A,3,08,27,09,07,51,23,16,30,11,28,48,18,1.49,0.80,1.26*0E
$GPGSV,4,1,16,05,00,315,,07,55,310,38,08,68,160,42,09,47,231,43*7D
$GPGSV,4,2,16,11,15,171,40,16,25,062,36,18,08,150,35,21,03,029,17*70
$GPGSV,4,3,16,23,26,189,41,26,00,074,,27,53,061,43,28,11,256,24*70
$GPGSV,4,4,16,30,28,304,25,46,23,237,,48,20,240,33,51,35,213,38*73
$GPGLL,4239.49108,N,08314.56012,W,192234.00,A,D*77
$GPRMC,192235.00,A,4239.49122,N,08314.55947,W,1.580,61.34,050418,,,D*47
$GPVTG,61.34,T,,M,1.580,N,2.926,K,D*0B
$GPGGA,192235.00,4239.49122,N,08314.55947,W,2,12,0.80,280.1,M,-34.9,M,,0000*64
$GPGSA,A,3,08,27,09,07,51,23,16,30,11,28,48,18,1.49,0.80,1.26*0E
$GPGSV,4,1,16,05,00,315,,07,55,310,46,08,68,160,45,09,47,231,36*71
$GPGSV,4,2,16,11,15,171,33,16,25,062,44,18,08,150,34,21,03,029,16*71
$GPGSV,4,3,16,23,26,189,38,26,00,074,,27,53,061,47,28,11,256,24*7A
$GPGSV,4,4,16,30,28,304,41,46,23,237,,48,20,240,29,51,35,213,36*74
$GPGLL,4239.49122,N,08314.55947,W,192235.00,A,D*74
$GPRMC,192236.00,A,4239.49166,N,08314.55903,W,2.374,36.39,050418,,,D*45
$GPVTG,36.39,T,,M,2.374,N,4.396,K,D*0D
$GPGGA,192236.00,4239.49166,N,08314.55903,W,2,12,0.80,280.4,M,-34.9,M,,0000*62
$GPGSA,A,3,08,27,09,07,51,23,16,30,11,28,48,18,1.49,0.80,1.26*0E
$GPGSV,4,1,16,05,00,315,,07,55,310,43,08,68,160,41,09,47,231,36*70
$GPGSV,4,2,16,11,15,171,23,16,24,063,36,18,08,150,29,21,03,029,15*7A
$GPGSV,4,3,16,23,26,189,34,26,00,074,,27,53,061,46,28,11,256,28*7B
$GPGSV,4,4,16,30,28,304,37,46,23,237,,48,20,240,28,51,35,213,30*72
$GPGLL,4239.49166,N,08314.55903,W,192236.00,A,D*77
$GPRMC,192237.00,A,4239.49228,N,08314.55886,W,2.436,17.39,050418,,,D*43
$GPVTG,17.39,T,,M,2.436,N,4.511,K,D*06
$GPGGA,192237.00,4239.49228,N,08314.55886,W,2,12,0.80,280.4,M,-34.9,M,,0000*66
$GPGSA,A,3,08,27,09,07,51,23,16,30,11,28,48,18,1.49,0.80,1.26*0E
$GPGSV,4,1,16,05,00,315,,07,55,310,43,08,68,160,40,09,47,231,36*71
$GPGSV,4,2,16,11,15,171,29,16,24,063,37,18,08,150,23,21,03,029,16*78
$GPGSV,4,3,16,23,26,189,34,26,00,074,,27,53,061,46,28,11,256,28*7B
$GPGSV,4,4,16,30,28,304,38,46,23,237,,48,20,240,28,51,35,213,29*75
$GPGLL,4239.49228,N,08314.55886,W,192237.00,A,D*73
$GPRMC,192238.00,A,4239.49289,N,08314.55879,W,2.414,7.52,050418,,,D*7B
$GPVTG,7.52,T,,M,2.414,N,4.470,K,D*3C
$GPGGA,192238.00,4239.49289,N,08314.55879,W,2,12,0.80,280.5,M,-34.9,M,,0000*63
$GPGSA,A,3,08,27,09,07,51,23,16,30,11,28,48,18,1.49,0.80,1.26*0E
$GPGSV,4,1,16,05,00,315,,07,55,310,43,08,68,160,42,09,47,231,37*72
$GPGSV,4,2,16,11,15,171,30,16,24,063,37,18,08,150,24,21,03,029,19*78
$GPGSV,4,3,16,23,26,189,32,26,00,074,,27,53,061,47,28,11,256,35*70
$GPGSV,4,4,16,30,28,304,39,46,23,237,,48,20,240,29,51,35,213,29*75
$GPGLL,4239.49289,N,08314.55879,W,192238.00,A,D*77
$GPRMC,192239.00,A,4239.49354,N,08314.55880,W,2.457,1.75,050418,,,D*79
$GPVTG,1.75,T,,M,2.457,N,4.550,K,D*3B
$GPGGA,192239.00,4239.49354,N,08314.55880,W,2,12,0.80,280.7,M,-34.9,M,,0000*67
$GPGSA,A,3,08,27,09,07,51,23,16,30,11,28,48,18,1.49,0.80,1.26*0E
$GPGSV,4,1,16,05,00,315,,07,55,310,44,08,68,160,42,09,47,231,33*71
$GPGSV,4,2,16,11,15,171,29,16,24,063,42,18,08,150,27,21,03,029,21*7A
$GPGSV,4,3,16,23,26,189,34,26,00,074,,27,53,061,46,28,11,256,29*7A
$GPGSV,4,4,16,30,28,304,34,46,23,237,,48,20,240,30,51,35,213,29*70
$GPGLL,4239.49354,N,08314.55880,W,192239.00,A,D*71
$GPRMC,192240.00,A,4239.49423,N,08314.55886,W,2.628,357.95,050418,,,D*72
$GPVTG,357.95,T,,M,2.628,N,4.867,K,D*36
$GPGGA,192240.00,4239.49423,N,08314.55886,W,2,12,0.80,280.8,M,-34.9,M,,0000*67
$GPGSA,A,3,08,27,09,07,51,23,16,30,11,28,48,18,1.49,0.80,1.26*0E
$GPGSV,4,1,16,05,00,315,,07,55,310,43,08,68,160,42,09,47,231,38*7D
$GPGSV,4,2,16,11,15,171,28,16,24,063,42,18,08,150,32,21,03,029,24*7A
$GPGSV,4,3,16,23,26,189,37,26,00,074,,27,53,061,47,28,11,256,30*70
$GPGSV,4,4,16,30,28,304,36,46,23,237,,48,20,240,29,51,35,213,30*72
$GPGLL,4239.49423,N,08314.55886,W,192240.00,A,D*7E
$GPRMC,192241.00,A,4239.49502,N,08314.55883,W,3.143,359.78,050418,,,D*72
$GPVTG,359.78,T,,M,3.143,N,5.821,K,D*33
$GPGGA,192241.00,4239.49502,N,08314.55883,W,2,12,0.80,280.7,M,-34.9,M,,0000*6E
$GPGSA,A,3,08,27,09,07,51,23,16,30,11,28,48,18,1.49,0.80,1.26*0E
$GPGSV,4,1,16,05,00,315,,07,55,310,45,08,68,160,41,09,47,231,36*76
$GPGSV,4,2,16,11,15,171,29,16,24,063,42,18,08,150,26,21,03,029,25*7F
$GPGSV,4,3,16,23,26,189,37,26,00,074,,27,53,061,47,28,11,256,33*73
$GPGSV,4,4,16,30,28,304,40,46,23,237,,48,20,240,29,51,35,213,33*70
$GPGLL,4239.49502,N,08314.55883,W,192241.00,A,D*78
$GPRMC,192242.00,A,4239.49576,N,08314.55880,W,2.643,359.16,050418,,,D*7F
$GPVTG,359.16,T,,M,2.643,N,4.896,K,D*30
$GPGGA,192242.00,4239.49576,N,08314.55880,W,2,11,0.83,280.6,M,-34.9,M,,0000*6C
$GPGSA,A,3,08,27,09,07,23,16,30,11,28,48,18,,1.53,0.83,1.29*0D
$GPGSV,4,1,16,05,00,315,,07,55,310,47,08,68,160,41,09,47,231,36*74
$GPGSV,4,2,16,11,15,171,29,16,24,063,42,18,08,150,25,21,03,029,24*7D
$GPGSV,4,3,16,23,26,189,34,26,00,074,,27,53,061,47,28,11,256,33*70
$GPGSV,4,4,16,30,28,304,41,46,23,237,,48,20,240,29,51,35,213,*71
$GPGLL,4239.49576,N,08314.55880,W,192242.00,A,D*7B
$GPRMC,192243.00,A,4239.49644,N,08314.55876,W,2.592,359.30,050418,,,D*7E
$GPVTG,359.30,T,,M,2.592,N,4.800,K,D*34
$GPGGA,192243.00,4239.49644,N,08314.55876,W,2,12,0.80,280.6,M,-34.9,M,,0000*66
$GPGSA,A,3,08,27,09,07,51,23,16,30,11,28,48,18,1.49,0.80,1.26*0E
$GPGSV,4,1,16,05,00,315,,07,55,310,46,08,68,160,42,09,47,231,34*74
$GPGSV,4,2,16,11,15,171,30,16,24,063,43,18,08,150,25,21,03,029,24*74
$GPGSV,4,3,16,23,26,189,34,26,00,074,,27,53,061,48,28,11,256,29*74
$GPGSV,4,4,16,30,28,304,39,46,23,237,,48,20,240,33,51,35,213,30*76
$GPGLL,4239.49644,N,08314.55876,W,192243.00,A,D*71
$GPRMC,192244.00,A,4239.49703,N,08314.55866,W,2.273,359.87,050418,,,D*7E
$GPVTG,359.87,T,,M,2.273,N,4.210,K,D*3B
$GPGGA,192244.00,4239.49703,N,08314.55866,W,2,12,0.80,280.8,M,-34.9,M,,0000*6C
$GPGSA,A,3,08,27,09,07,51,23,16,30,11,28,48,18,1.49,0.80,1.26*0E
$GPGSV,4,1,16,05,00,315,,07,55,310,44,08,68,160,42,09,47,231,30*72
$GPGSV,4,2,16,11,15,171,28,16,24,063,41,18,08,150,25,21,03,029,23*78
$GPGSV,4,3,16,23,26,189,36,26,00,074,,27,53,061,44,28,11,256,27*74
$GPGSV,4,4,16,30,28,304,39,46,23,237,,48,20,240,29,51,35,213,29*75
$GPGLL,4239.49703,N,08314.55866,W,192244.00,A,D*75
$GPRMC,192245.00,A,4239.49771,N,08314.55857,W,2.774,0.52,050418,,,D*7D
$GPVTG,0.52,T,,M,2.774,N,5.138,K,D*36
$GPGGA,192245.00,4239.49771,N,08314.55857,W,2,12,0.80,281.0,M,-34.9,M,,0000*63
$GPGSA,A,3,08,27,09,07,51,23,16,30,11,28,48,18,1.49,0.80,1.26*0E
$GPGSV,4,1,16,05,00,315,,07,55,310,46,08,68,160,42,09,47,231,33*73
$GPGSV,4,2,16,11,15,171,30,16,24,063,42,18,08,150,25,21,03,029,22*73
$GPGSV,4,3,16,23,26,189,35,26,00,074,,27,53,061,47,28,11,256,23*70
$GPGSV,4,4,16,30,28,304,40,46,23,237,,48,20,240,29,51,35,213,30*73
$GPGLL,4239.49771,N,08314.55857,W,192245.00,A,D*73
$GPRMC,192246.00,A,4239.49848,N,08314.55851,W,2.853,0.54,050418,,,D*71
$GPVTG,0.54,T,,M,2.853,N,5.284,K,D*3E
$GPGGA,192246.00,4239.49848,N,08314.55851,W,2,12,0.80,280.9,M,-34.9,M,,0000*6B
$GPGSA,A,3,08,27,09,07,51,23,16,30,11,28,48,18,1.49,0.80,1.26*0E
$GPGSV,4,1,16,05,00,315,,07,55,310,45,08,68,160,40,09,47,231,38*79
$GPGSV,4,2,16,11,15,171,31,16,24,063,41,18,08,150,26,21,03,029,24*74
$GPGSV,4,3,16,23,26,189,29,26,00,074,,27,53,061,47,28,11,256,25*7B
$GPGSV,4,4,16,30,28,304,36,46,23,237,,48,20,240,27,51,35,213,29*74
$GPGLL,4239.49848,N,08314.55851,W,192246.00,A,D*73
$GPRMC,192247.00,A,4239.49919,N,08314.55848,W,2.594,359.74,050418,,,D*76
$GPVTG,359.74,T,,M,2.594,N,4.804,K,D*36
$GPGGA,192247.00,4239.49919,N,08314.55848,W,2,12,0.80,280.7,M,-34.9,M,,0000*69
$GPGSA,A,3,08,27,09,07,51,23,16,30,11,28,48,18,1.49,0.80,1.26*0E
$GPGSV,4,1,16,05,00,315,,07,55,310,45,08,68,160,41,09,47,231,33*73
$GPGSV,4,2,16,11,15,171,34,16,24,063,42,18,08,150,25,21,03,029,24*71
$GPGSV,4,3,16,23,26,189,33,26,00,074,,27,53,060,46,28,11,256,26*73
$GPGSV,4,4,16,30,28,304,37,46,23,237,,48,20,240,27,51,35,213,32*7F
$GPGLL,4239.49919,N,08314.55848,W,192247.00,A,D*7F
$GPRMC,192248.00,A,4239.49984,N,08314.55846,W,2.467,359.15,050418,,,D*79
$GPVTG,359.15,T,,M,2.467,N,4.569,K,D*3A
$GPGGA,192248.00,4239.49984,N,08314.55846,W,2,12,0.80,280.7,M,-34.9,M,,0000*6C
$GPGSA,A,3,08,27,09,07,51,23,16,30,11,28,48,18,1.49,0.80,1.26*0E
$GPGSV,4,1,16,05,00,315,,07,55,310,45,08,68,160,42,09,47,231,31*72
$GPGSV,4,2,16,11,15,171,30,16,24,063,43,18,08,150,23,21,03,029,21*77
$GPGSV,4,3,16,23,26,189,33,26,00,074,,27,53,060,47,28,11,256,32*77
$GPGSV,4,4,16,30,28,304,41,46,23,237,,48,20,240,29,51,35,213,30*72
$GPGLL,4239.49984,N,08314.55846,W,192248.00,A,D*7A
$GPRMC,192249.00,A,4239.50049,N,08314.55847,W,2.550,357.43,050418,,,D*71
$GPVTG,357.43,T,,M,2.550,N,4.722,K,D*3F
$GPGGA,192249.00,4239.50049,N,08314.55847,W,2,12,0.80,280.9,M,-34.9,M,,0000*62
$GPGSA,A,3,08,27,09,07,51,23,16,30,11,28,48,18,1.49,0.80,1.26*0E
$GPGSV,4,1,16,05,00,315,,07,55,310,44,08,68,160,41,09,47,231,32*73
$GPGSV,4,2,16,11,15,171,30,16,24,063,40,18,08,150,22,21,03,029,20*74
$GPGSV,4,3,16,23,26,189,32,26,00,074,,27,53,060,46,28,11,256,31*74
$GPGSV,4,4,16,30,28,304,38,46,23,237,,48,20,240,28,51,35,213,29*75
$GPGLL,4239.50049,N,08314.55847,W,192249.00,A,D*7A
$GPRMC,192250.00,A,4239.50119,N,08314.55850,W,2.627,356.80,050418,,,D*76
$GPVTG,356.80,T,,M,2.627,N,4.865,K,D*3E
$GPGGA,192250.00,4239.50119,N,08314.55850,W,2,12,0.80,281.0,M,-34.9,M,,0000*60
$GPGSA,A,3,08,27,09,07,51,23,16,30,11,28,48,18,1.49,0.80,1.26*0E
$GPGSV,4,1,16,05,00,315,,07,55,310,46,08,68,160,42,09,47,231,36*76
$GPGSV,4,2,16,11,15,171,29,16,24,063,40,18,08,150,30,21,03,029,17*7B
$GPGSV,4,3,16,23,26,189,31,26,00,074,,27,53,060,47,28,11,256,34*73
$GPGSV,4,4,16,30,28,304,38,46,23,237,,48,20,240,30,51,35,213,30*74
$GPGLL,4239.50119,N,08314.55850,W,192250.00,A,D*70
$GPRMC,192251.00,A,4239.50195,N,08314.55856,W,2.831,356.24,050418,,,D*72
$GPVTG,356.24,T,,M,2.831,N,5.244,K,D*31
$GPGGA,192251.00,4239.50195,N,08314.55856,W,2,12,0.80,281.4,M,-34.9,M,,0000*67
$GPGSA,A,3,08,27,09,07,51,23,16,30,11,28,48,18,1.49,0.80,1.26*0E
$GPGSV,4,1,16,05,00,315,,07,55,310,47,08,68,160,41,09,47,231,35*77
$GPGSV,4,2,16,11,15,171,29,16,24,063,42,18,08,150,24,21,03,029,16*7D
$GPGSV,4,3,16,23,26,189,34,26,00,074,,27,53,060,47,28,11,256,26*75
$GPGSV,4,4,16,30,28,304,38,46,23,237,,48,20,240,30,51,35,213,29*7C
$GPGLL,4239.50195,N,08314.55856,W,192251.00,A,D*73
$GPRMC,192252.00,A,4239.50261,N,08314.55856,W,2.470,359.60,050418,,,D*7F
$GPVTG,359.60,T,,M,2.470,N,4.574,K,D*32
$GPGGA,192252.00,4239.50261,N,08314.55856,W,2,12,0.80,281.2,M,-34.9,M,,0000*6A
$GPGSA,A,3,08,27,09,07,51,23,16,30,11,28,48,18,1.49,0.80,1.26*0E
$GPGSV,4,1,16,05,00,315,,07,55,310,44,08,68,160,43,09,47,231,36*75
$GPGSV,4,2,16,11,15,171,30,16,24,063,42,18,08,150,23,21,03,029,16*72
$GPGSV,4,3,16,23,26,189,30,26,00,074,,27,53,060,47,28,11,256,32*74
$GPGSV,4,4,16,30,28,304,38,46,23,237,,48,20,240,29,51,35,213,28*75
$GPGLL,4239.50261,N,08314.55856,W,192252.00,A,D*78
$GPRMC,192253.00,A,4239.50332,N,08314.55862,W,2.632,356.27,050418,,,D*76
$GPVTG,356.27,T,,M,2.632,N,4.874,K,D*37
$GPGGA,192253.00,4239.50332,N,08314.55862,W,2,11,0.83,281.7,M,-34.9,M,,0000*6E
$GPGSA,A,3,08,27,09,07,23,16,30,11,28,48,18,,1.53,0.83,1.29*0D
$GPGSV,4,1,16,05,00,315,,07,55,310,45,08,68,160,43,09,47,231,33*71
$GPGSV,4,2,16,11,15,171,31,16,24,063,43,18,08,150,23,21,03,029,16*72
$GPGSV,4,3,16,23,26,189,34,26,00,074,,27,53,060,47,28,11,256,31*73
$GPGSV,4,4,16,30,28,304,40,46,23,237,,48,20,240,30,51,35,213,27*7D
