=~=~=~=~=~=~=~=~=~=~=~= PuTTY log 2018.04.05 15:21:05 =~=~=~=~=~=~=~=~=~=~=~=
$GPGGA,192105.000,4239.4890,N,08314.6235,W,1,10,0.9,283.3,M,-34.2,M,,0000*6F
$GPGSA,A,3,23,30,28,27,09,11,07,18,16,08,,,1.5,0.9,1.3*38
$GPRMC,192105.000,A,4239.4890,N,08314.6235,W,0.02,52.15,050418,,,A*4E
$GPGGA,192106.000,4239.4890,N,08314.6233,W,1,10,0.9,283.0,M,-34.2,M,,0000*69
$GPGSA,A,3,23,30,28,27,09,11,07,18,16,08,,,1.5,0.9,1.3*38
$GPRMC,192106.000,A,4239.4890,N,08314.6233,W,0.08,99.01,050418,,,A*43
$GPGGA,192107.000,4239.4891,N,08314.6232,W,1,10,0.9,282.8,M,-34.2,M,,0000*61
$GPGSA,A,3,23,30,28,27,09,11,07,18,16,08,,,1.5,0.9,1.3*38
$GPRMC,192107.000,A,4239.4891,N,08314.6232,W,0.13,91.90,050418,,,A*48
$GPGGA,192108.000,4239.4892,N,08314.6230,W,1,10,0.9,282.7,M,-34.2,M,,0000*60
$GPGSA,A,3,23,30,28,27,09,11,07,18,16,08,,,1.5,0.9,1.3*38
$GPGSV,3,1,12,08,66,161,43,07,53,309,36,27,53,061,39,09,48,232,36*72
$GPGSV,3,2,12,30,27,303,24,23,27,189,40,16,25,061,31,11,14,171,31*7E
$GPGSV,3,3,12,28,10,255,21,18,06,150,24,21,03,029,,26,,073,*76
$GPRMC,192108.000,A,4239.4892,N,08314.6230,W,0.21,115.98,050418,,,A*72
$GPGGA,192109.000,4239.4892,N,08314.6228,W,1,10,0.9,282.6,M,-34.2,M,,0000*69
$GPGSA,A,3,23,30,28,27,09,11,07,18,16,08,,,1.5,0.9,1.3*38
$GPRMC,192109.000,A,4239.4892,N,08314.6228,W,0.30,108.93,050418,,,A*7D
$GPGGA,192110.000,4239.4893,N,08314.6227,W,1,10,0.9,282.4,M,-34.2,M,,0000*6D
$GPGSA,A,3,23,30,28,27,09,11,07,18,16,08,,,1.5,0.9,1.3*38
$GPRMC,192110.000,A,4239.4893,N,08314.6227,W,0.10,131.97,050418,,,A*77
$GPGGA,192111.000,4239.4894,N,08314.6226,W,1,10,0.9,282.1,M,-34.2,M,,0000*6F
$GPGSA,A,3,23,30,28,27,09,11,07,18,16,08,,,1.5,0.9,1.3*38
$GPRMC,192111.000,A,4239.4894,N,08314.6226,W,0.20,302.69,050418,,,A*70
$GPGGA,192112.000,4239.4894,N,08314.6225,W,1,10,0.9,281.9,M,-34.2,M,,0000*64
$GPGSA,A,3,23,30,28,27,09,11,07,18,16,08,,,1.5,0.9,1.3*38
$GPRMC,192112.000,A,4239.4894,N,08314.6225,W,0.10,325.05,050418,,,A*7C
$GPGGA,192113.000,4239.4895,N,08314.6224,W,1,10,0.9,281.7,M,-34.2,M,,0000*6B
$GPGSA,A,3,23,30,28,27,09,11,07,18,16,08,,,1.5,0.9,1.3*38
$GPGSV,3,1,12,08,66,161,42,07,53,309,36,27,53,061,38,09,48,232,30*74
$GPGSV,3,2,12,30,27,303,26,23,27,189,35,16,25,061,31,11,14,171,26*78
$GPGSV,3,3,12,28,10,255,19,18,06,150,22,21,03,029,,26,,073,*7B
$GPRMC,192113.000,A,4239.4895,N,08314.6224,W,0.04,73.57,050418,,,A*4F
$GPGGA,192114.000,4239.4895,N,08314.6222,W,1,10,0.9,281.9,M,-34.2,M,,0000*64
$GPGSA,A,3,23,30,28,27,09,11,07,18,16,08,,,1.5,0.9,1.3*38
$GPRMC,192114.000,A,4239.4895,N,08314.6222,W,0.20,352.27,050418,,,A*7F
$GPGGA,192115.000,4239.4896,N,08314.6220,W,1,10,0.9,282.0,M,-34.2,M,,0000*6E
$GPGSA,A,3,23,30,28,27,09,11,07,18,16,08,,,1.5,0.9,1.3*38
$GPRMC,192115.000,A,4239.4896,N,08314.6220,W,0.03,257.97,050418,,,A*71
$GPGGA,192116.000,4239.4896,N,08314.6219,W,1,10,0.9,282.1,M,-34.2,M,,0000*66
$GPGSA,A,3,23,30,28,27,09,11,07,18,16,08,,,1.5,0.9,1.3*38
$GPRMC,192116.000,A,4239.4896,N,08314.6219,W,0.24,141.07,050418,,,A*70
$GPGGA,192117.000,4239.4897,N,08314.6218,W,1,10,0.9,282.1,M,-34.2,M,,0000*67
$GPGSA,A,3,23,30,28,27,09,11,07,18,16,08,,,1.5,0.9,1.3*38
$GPRMC,192117.000,A,4239.4897,N,08314.6218,W,0.04,254.36,050418,,,A*76
$GPGGA,192118.000,4239.4898,N,08314.6217,W,1,10,0.9,282.2,M,-34.2,M,,0000*6B
$GPGSA,A,3,23,30,28,27,09,11,07,18,16,08,,,1.5,0.9,1.3*38
$GPGSV,3,1,12,08,66,161,42,07,53,309,37,27,53,061,38,09,48,232,36*73
$GPGSV,3,2,12,30,27,303,22,23,27,189,28,16,25,061,36,11,14,171,26*77
$GPGSV,3,3,12,28,10,255,20,18,06,150,22,21,03,029,,26,,073,*71
$GPRMC,192118.000,A,4239.4898,N,08314.6217,W,0.36,352.29,050418,,,A*71
$GPGGA,192119.000,4239.4899,N,08314.6215,W,1,10,0.9,282.1,M,-34.2,M,,0000*6A
$GPGSA,A,3,23,30,28,27,09,11,07,18,16,08,,,1.5,0.9,1.3*38
$GPRMC,192119.000,A,4239.4899,N,08314.6215,W,0.73,90.79,050418,,,A*4A
$GPGGA,192120.000,4239.4899,N,08314.6210,W,1,10,0.9,281.9,M,-34.2,M,,0000*6E
$GPGSA,A,3,23,30,28,27,09,11,07,18,16,08,,,1.5,0.9,1.3*38
$GPRMC,192120.000,A,4239.4899,N,08314.6210,W,1.34,77.93,050418,,,A*4A
$GPGGA,192121.000,4239.4900,N,08314.6204,W,1,10,0.9,281.8,M,-34.2,M,,0000*6A
$GPGSA,A,3,23,30,28,27,09,11,07,18,16,08,,,1.5,0.9,1.3*38
$GPRMC,192121.000,A,4239.4900,N,08314.6204,W,1.16,70.50,050418,,,A*47
$GPGGA,192122.000,4239.4901,N,08314.6197,W,1,10,0.9,281.6,M,-34.2,M,,0000*6F
$GPGSA,A,3,23,30,28,27,09,11,07,18,16,08,,,1.5,0.9,1.3*38
$GPRMC,192122.000,A,4239.4901,N,08314.6197,W,1.65,85.42,050418,,,A*41
$GPGGA,192123.000,4239.4901,N,08314.6189,W,1,10,0.9,281.7,M,-34.2,M,,0000*60
$GPGSA,A,3,23,30,28,27,09,11,07,18,16,08,,,1.5,0.9,1.3*38
$GPGSV,3,1,12,08,67,160,42,07,54,309,37,27,52,060,40,09,47,230,38*78
$GPGSV,3,2,12,30,27,304,29,23,26,189,36,16,24,062,36,11,15,171,32*73
$GPGSV,3,3,12,28,10,256,26,18,07,149,27,21,02,028,,26,,073,*78
$GPRMC,192123.000,A,4239.4901,N,08314.6189,W,1.85,96.55,050418,,,A*45
$GPGGA,192124.000,4239.4901,N,08314.6180,W,1,10,0.9,282.0,M,-34.2,M,,0000*6A
$GPGSA,A,3,23,30,28,27,09,11,07,18,16,08,,,1.5,0.9,1.3*38
$GPRMC,192124.000,A,4239.4901,N,08314.6180,W,2.01,84.35,050418,,,A*41
$GPGGA,192125.000,4239.4902,N,08314.6172,W,1,10,0.9,282.0,M,-34.2,M,,0000*65
$GPGSA,A,3,23,30,28,27,09,11,07,18,16,08,,,1.5,0.9,1.3*38
$GPRMC,192125.000,A,4239.4902,N,08314.6172,W,1.69,82.36,050418,,,A*46
$GPGGA,192126.000,4239.4902,N,08314.6164,W,1,10,0.9,282.1,M,-34.2,M,,0000*60
$GPGSA,A,3,23,30,28,27,09,11,07,18,16,08,,,1.5,0.9,1.3*38
$GPRMC,192126.000,A,4239.4902,N,08314.6164,W,1.63,86.94,050418,,,A*44
$GPGGA,192127.000,4239.4903,N,08314.6157,W,1,10,0.9,282.1,M,-34.2,M,,0000*60
$GPGSA,A,3,23,30,28,27,09,11,07,18,16,08,,,1.5,0.9,1.3*38
$GPRMC,192127.000,A,4239.4903,N,08314.6157,W,1.78,86.94,050418,,,A*4E
$GPGGA,192128.000,4239.4904,N,08314.6149,W,1,10,0.9,282.2,M,-34.2,M,,0000*64
$GPGSA,A,3,23,30,28,27,09,11,07,18,16,08,,,1.5,0.9,1.3*38
$GPGSV,3,1,12,08,67,160,41,07,54,309,37,27,52,060,40,09,47,230,39*7A
$GPGSV,3,2,12,30,27,304,28,23,26,189,35,16,24,062,35,11,15,171,34*74
$GPGSV,3,3,12,28,10,256,25,18,07,149,27,21,02,028,,26,,073,*7B
$GPRMC,192128.000,A,4239.4904,N,08314.6149,W,1.84,84.41,050418,,,A*40
$GPGGA,192129.000,4239.4905,N,08314.6140,W,1,10,0.9,282.3,M,-34.2,M,,0000*6C
$GPGSA,A,3,23,30,28,27,09,11,07,18,16,08,,,1.5,0.9,1.3*38
$GPRMC,192129.000,A,4239.4905,N,08314.6140,W,1.87,86.12,050418,,,A*4E
$GPGGA,192130.000,4239.4905,N,08314.6132,W,1,10,0.9,282.4,M,-34.2,M,,0000*66
$GPGSA,A,3,23,30,28,27,09,11,07,18,16,08,,,1.5,0.9,1.3*38
$GPRMC,192130.000,A,4239.4905,N,08314.6132,W,1.79,81.79,050418,,,A*48
$GPGGA,192131.000,4239.4905,N,08314.6124,W,1,10,0.9,282.8,M,-34.2,M,,0000*6C
$GPGSA,A,3,23,30,28,27,09,11,07,18,16,08,,,1.5,0.9,1.3*38
$GPRMC,192131.000,A,4239.4905,N,08314.6124,W,1.77,80.48,050418,,,A*43
$GPGGA,192132.000,4239.4906,N,08314.6116,W,1,10,0.9,282.9,M,-34.2,M,,0000*6C
$GPGSA,A,3,23,30,28,27,09,11,07,18,16,08,,,1.5,0.9,1.3*38
$GPRMC,192132.000,A,4239.4906,N,08314.6116,W,1.67,89.53,050418,,,A*40
$GPGGA,192133.000,4239.4906,N,08314.6109,W,1,10,0.9,283.1,M,-34.2,M,,0000*6A
$GPGSA,A,3,23,30,28,27,09,11,07,18,16,08,,,1.5,0.9,1.3*38
$GPGSV,3,1,12,08,67,159,41,07,54,309,37,27,52,060,41,09,47,230,38*70
$GPGSV,3,2,12,30,28,304,27,23,25,189,41,16,24,062,35,11,15,171,31*71
$GPGSV,3,3,12,28,10,256,28,18,07,149,26,21,02,028,,26,,073,*77
$GPRMC,192133.000,A,4239.4906,N,08314.6109,W,1.41,82.90,050418,,,A*4F
$GPGGA,192134.000,4239.4906,N,08314.6102,W,1,10,0.9,283.4,M,-34.2,M,,0000*63
$GPGSA,A,3,23,30,28,27,09,11,07,18,16,08,,,1.5,0.9,1.3*38
$GPRMC,192134.000,A,4239.4906,N,08314.6102,W,1.64,83.31,050418,,,A*4E
$GPGGA,192135.000,4239.4907,N,08314.6096,W,1,10,0.9,283.6,M,-34.2,M,,0000*6D
$GPGSA,A,3,23,30,28,27,09,11,07,18,16,08,,,1.5,0.9,1.3*38
$GPRMC,192135.000,A,4239.4907,N,08314.6096,W,1.62,85.45,050418,,,A*41
$GPGGA,192136.000,4239.4907,N,08314.6089,W,1,10,0.9,283.7,M,-34.2,M,,0000*61
$GPGSA,A,3,23,30,28,27,09,11,07,18,16,08,,,1.5,0.9,1.3*38
$GPRMC,192136.000,A,4239.4907,N,08314.6089,W,1.76,82.73,050418,,,A*4B
$GPGGA,192137.000,4239.4908,N,08314.6081,W,1,10,0.9,283.7,M,-34.2,M,,0000*67
$GPGSA,A,3,23,30,28,27,09,11,07,18,16,08,,,1.5,0.9,1.3*38
$GPRMC,192137.000,A,4239.4908,N,08314.6081,W,1.91,86.86,050418,,,A*4A
$GPGGA,192138.000,4239.4909,N,08314.6074,W,1,10,0.9,283.9,M,-34.2,M,,0000*6D
$GPGSA,A,3,23,30,28,27,09,11,07,18,16,08,,,1.5,0.9,1.3*38
$GPGSV,3,1,12,08,67,159,38,07,54,309,37,27,52,060,40,09,47,230,38*7F
$GPGSV,3,2,12,30,28,304,28,23,25,189,36,16,24,062,28,11,15,171,23*71
$GPGSV,3,3,12,28,10,256,19,18,07,149,27,21,02,028,,26,,073,*74
$GPRMC,192138.000,A,4239.4909,N,08314.6074,W,1.74,84.78,050418,,,A*46
$GPGGA,192139.000,4239.4910,N,08314.6067,W,1,10,0.9,284.1,M,-34.2,M,,0000*69
$GPGSA,A,3,23,30,28,27,09,11,07,18,16,08,,,1.5,0.9,1.3*38
$GPRMC,192139.000,A,4239.4910,N,08314.6067,W,1.81,83.92,050418,,,A*44
$GPGGA,192140.000,4239.4912,N,08314.6061,W,1,10,0.9,284.1,M,-34.2,M,,0000*63
$GPGSA,A,3,23,30,28,27,09,11,07,18,16,08,,,1.5,0.9,1.3*38
$GPRMC,192140.000,A,4239.4912,N,08314.6061,W,1.65,76.89,050418,,,A*44
$GPGGA,192141.000,4239.4912,N,08314.6054,W,1,10,0.9,284.2,M,-34.2,M,,0000*67
$GPGSA,A,3,23,30,28,27,09,11,07,18,16,08,,,1.5,0.9,1.3*38
$GPRMC,192141.000,A,4239.4912,N,08314.6054,W,1.94,85.15,050418,,,A*44
$GPGGA,192142.000,4239.4913,N,08314.6047,W,1,10,0.9,284.4,M,-34.2,M,,0000*61
$GPGSA,A,3,23,30,28,27,09,11,07,18,16,08,,,1.5,0.9,1.3*38
$GPRMC,192142.000,A,4239.4913,N,08314.6047,W,1.84,89.20,050418,,,A*4F
$GPGGA,192143.000,4239.4913,N,08314.6040,W,1,10,0.9,284.9,M,-34.2,M,,0000*6A
$GPGSA,A,3,23,30,28,27,09,11,07,18,16,08,,,1.5,0.9,1.3*38
$GPGSV,3,1,12,08,67,159,38,07,54,309,38,27,52,060,40,09,47,230,38*70
$GPGSV,3,2,12,30,28,304,27,23,25,189,41,16,24,062,28,11,15,171,30*7C
$GPGSV,3,3,12,28,10,256,22,18,07,149,27,21,02,028,,26,,073,*7C
$GPRMC,192143.000,A,4239.4913,N,08314.6040,W,1.87,91.05,050418,,,A*44
$GPGGA,192144.000,4239.4913,N,08314.6034,W,1,10,0.9,285.3,M,-34.2,M,,0000*65
$GPGSA,A,3,23,30,28,27,09,11,07,18,16,08,,,1.5,0.9,1.3*38
$GPRMC,192144.000,A,4239.4913,N,08314.6034,W,1.56,87.70,050418,,,A*49
$GPGGA,192145.000,4239.4913,N,08314.6027,W,1,10,0.9,285.6,M,-34.2,M,,0000*63
$GPGSA,A,3,23,30,28,27,09,11,07,18,16,08,,,1.5,0.9,1.3*38
$GPRMC,192145.000,A,4239.4913,N,08314.6027,W,1.78,86.63,050418,,,A*45
$GPGGA,192146.000,4239.4913,N,08314.6019,W,1,10,0.9,285.9,M,-34.2,M,,0000*62
$GPGSA,A,3,23,30,28,27,09,11,07,18,16,08,,,1.6,0.9,1.3*3B
$GPRMC,192146.000,A,4239.4913,N,08314.6019,W,1.85,93.13,050418,,,A*4A
$GPGGA,192147.000,4239.4913,N,08314.6012,W,1,10,0.9,286.2,M,-34.2,M,,0000*60
$GPGSA,A,3,23,30,28,27,09,11,07,18,16,08,,,1.6,0.9,1.3*3B
$GPRMC,192147.000,A,4239.4913,N,08314.6012,W,1.95,89.55,050418,,,A*48
$GPGGA,192148.000,4239.4913,N,08314.6005,W,1,10,0.9,286.5,M,-34.2,M,,0000*6E
$GPGSA,A,3,23,30,28,27,09,11,07,18,16,08,,,1.6,0.9,1.3*3B
$GPGSV,3,1,12,08,67,159,40,07,54,309,38,27,52,060,40,09,47,230,37*70
$GPGSV,3,2,12,30,28,304,29,23,25,189,39,16,24,062,31,11,15,171,34*71
$GPGSV,3,3,12,28,10,256,22,18,07,149,29,21,02,028,,26,,073,*72
$GPRMC,192148.000,A,4239.4913,N,08314.6005,W,1.62,92.00,050418,,,A*43
$GPGGA,192149.000,4239.4914,N,08314.5997,W,1,10,0.9,286.6,M,-34.2,M,,0000*6A
$GPGSA,A,3,23,30,28,27,09,11,07,18,16,08,,,1.6,0.9,1.3*3B
$GPRMC,192149.000,A,4239.4914,N,08314.5997,W,1.64,88.16,050418,,,A*4E
$GPGGA,192150.000,4239.4914,N,08314.5990,W,1,10,0.9,286.7,M,-34.2,M,,0000*64
$GPGSA,A,3,23,30,28,27,09,11,07,18,16,08,,,1.6,0.9,1.3*3B
$GPRMC,192150.000,A,4239.4914,N,08314.5990,W,1.65,87.23,050418,,,A*49
$GPGGA,192151.000,4239.4914,N,08314.5982,W,1,10,0.9,286.8,M,-34.2,M,,0000*69
$GPGSA,A,3,23,30,28,27,09,11,07,18,16,08,,,1.6,0.9,1.3*3B
$GPRMC,192151.000,A,4239.4914,N,08314.5982,W,1.97,90.07,050418,,,A*46
$GPGGA,192152.000,4239.4914,N,08314.5973,W,1,10,0.9,286.6,M,-34.2,M,,0000*6A
$GPGSA,A,3,23,30,28,27,09,11,07,18,16,08,,,1.6,0.9,1.3*3B
$GPRMC,192152.000,A,4239.4914,N,08314.5973,W,1.90,87.26,050418,,,A*49
$GPGGA,192153.000,4239.4915,N,08314.5965,W,1,10,0.9,286.6,M,-34.2,M,,0000*6D
$GPGSA,A,3,23,30,28,27,09,11,07,18,16,08,,,1.6,0.9,1.3*3B
$GPGSV,3,1,12,08,67,159,41,07,54,309,37,27,52,060,40,09,47,230,37*7E
$GPGSV,3,2,12,30,28,304,31,23,25,189,39,16,24,062,31,11,15,171,31*7D
$GPGSV,3,3,12,28,10,256,23,18,07,149,28,21,02,028,,26,,073,*72
$GPRMC,192153.000,A,4239.4915,N,08314.5965,W,1.73,90.08,050418,,,A*49
$GPGGA,192154.000,4239.4915,N,08314.5957,W,1,10,0.9,286.6,M,-34.2,M,,0000*6B
$GPGSA,A,3,23,30,28,27,09,11,07,18,16,08,,,1.6,0.9,1.3*3B
$GPRMC,192154.000,A,4239.4915,N,08314.5957,W,2.06,85.21,050418,,,A*41
$GPGGA,192155.000,4239.4916,N,08314.5949,W,1,10,0.9,286.7,M,-34.2,M,,0000*67
$GPGSA,A,3,23,30,28,27,09,11,07,18,16,08,,,1.6,0.9,1.3*3B
$GPRMC,192155.000,A,4239.4916,N,08314.5949,W,1.80,82.32,050418,,,A*44
$GPGGA,192156.000,4239.4916,N,08314.5942,W,1,09,0.9,286.7,M,-34.2,M,,0000*67
$GPGSA,A,3,23,30,28,27,09,07,18,16,08,,,,1.6,0.9,1.3*3B
$GPRMC,192156.000,A,4239.4916,N,08314.5942,W,1.86,87.43,050418,,,A*49
$GPGGA,192157.000,4239.4917,N,08314.5934,W,1,10,0.9,286.6,M,-34.2,M,,0000*6F
$GPGSA,A,3,23,30,28,27,09,11,07,18,16,08,,,1.6,0.9,1.3*3B
$GPRMC,192157.000,A,4239.4917,N,08314.5934,W,2.13,89.31,050418,,,A*4C
$GPGGA,192158.000,4239.4917,N,08314.5925,W,1,10,0.9,286.7,M,-34.2,M,,0000*61
$GPGSA,A,3,23,30,28,27,09,11,07,18,16,08,,,1.6,0.9,1.3*3B
$GPGSV,3,1,12,08,67,159,41,07,54,309,37,27,52,060,40,09,47,230,38*71
$GPGSV,3,2,12,30,28,304,32,23,25,189,38,16,24,062,32,11,15,171,28*74
$GPGSV,3,3,12,28,10,256,23,18,07,149,25,21,02,028,,26,,073,*7F
$GPRMC,192158.000,A,4239.4917,N,08314.5925,W,2.04,86.09,050418,,,A*41
$GPGGA,192159.000,4239.4918,N,08314.5917,W,1,10,0.9,286.9,M,-34.2,M,,0000*60
$GPGSA,A,3,23,30,28,27,09,11,07,18,16,08,,,1.6,0.9,1.3*3B
$GPRMC,192159.000,A,4239.4918,N,08314.5917,W,1.98,81.82,050418,,,A*4C
$GPGGA,192200.000,4239.4919,N,08314.5909,W,1,10,0.9,287.1,M,-34.2,M,,0000*68
$GPGSA,A,3,23,30,28,27,09,11,07,18,16,08,,,1.6,0.9,1.3*3B
$GPRMC,192200.000,A,4239.4919,N,08314.5909,W,2.06,88.83,050418,,,A*41
$GPGGA,192201.000,4239.4920,N,08314.5901,W,1,10,0.9,287.3,M,-34.2,M,,0000*69
$GPGSA,A,3,23,30,28,27,09,11,07,18,16,08,,,1.6,0.9,1.3*3B
$GPRMC,192201.000,A,4239.4920,N,08314.5901,W,2.02,85.07,050418,,,A*47
$GPGGA,192202.000,4239.4920,N,08314.5892,W,1,10,0.9,287.3,M,-34.2,M,,0000*61
$GPGSA,A,3,23,30,28,27,09,11,07,18,16,08,,,1.6,0.9,1.3*3B
$GPRMC,192202.000,A,4239.4920,N,08314.5892,W,2.30,89.70,050418,,,A*42
$GPGGA,192203.000,4239.4920,N,08314.5883,W,1,10,0.9,287.2,M,-34.2,M,,0000*61
$GPGSA,A,3,23,30,28,27,09,11,07,18,16,08,,,1.6,0.9,1.3*3B
$GPGSV,3,1,12,08,67,159,41,07,54,309,37,27,52,060,41,09,47,230,38*70
$GPGSV,3,2,12,30,28,304,33,23,25,189,33,16,24,062,32,11,15,171,28*7E
$GPGSV,3,3,12,28,10,256,23,18,07,149,25,21,02,028,,26,,073,*7F
$GPRMC,192203.000,A,4239.4920,N,08314.5883,W,2.42,90.30,050418,,,A*4A
$GPGGA,192204.000,4239.4920,N,08314.5873,W,1,10,0.9,287.2,M,-34.2,M,,0000*69
$GPGSA,A,3,23,30,28,27,09,11,07,18,16,08,,,1.6,0.9,1.3*3B
$GPRMC,192204.000,A,4239.4920,N,08314.5873,W,2.32,89.05,050418,,,A*4B
$GPGGA,192205.000,4239.4920,N,08314.5864,W,1,10,0.9,287.3,M,-34.2,M,,0000*6F
$GPGSA,A,3,23,30,28,27,09,11,07,18,16,08,,,1.6,0.9,1.3*3B
$GPRMC,192205.000,A,4239.4920,N,08314.5864,W,2.33,90.59,050418,,,A*4C
$GPGGA,192206.000,4239.4919,N,08314.5855,W,1,10,0.9,287.3,M,-34.2,M,,0000*64
$GPGSA,A,3,23,30,28,27,09,11,07,18,16,08,,,1.6,0.9,1.3*3B
$GPRMC,192206.000,A,4239.4919,N,08314.5855,W,2.18,90.72,050418,,,A*47
$GPGGA,192207.000,4239.4920,N,08314.5847,W,1,10,0.9,287.3,M,-34.2,M,,0000*6C
$GPGSA,A,3,23,30,28,27,09,11,07,18,16,08,,,1.6,0.9,1.3*3B
$GPRMC,192207.000,A,4239.4920,N,08314.5847,W,2.18,87.11,050418,,,A*4C
$GPGGA,192208.000,4239.4920,N,08314.5838,W,1,10,0.9,287.4,M,-34.2,M,,0000*6C
$GPGSA,A,3,23,30,28,27,09,11,07,18,16,08,,,1.6,0.9,1.3*3B
$GPGSV,3,1,12,08,67,159,41,07,54,309,35,27,52,060,42,09,47,230,38*71
$GPGSV,3,2,12,30,28,304,33,23,25,189,39,16,24,062,32,11,15,171,31*7C
$GPGSV,3,3,12,28,10,256,22,18,07,149,25,21,02,028,25,26,,073,*79
$GPRMC,192208.000,A,4239.4920,N,08314.5838,W,2.17,82.61,050418,,,A*46
$GPGGA,192209.000,4239.4921,N,08314.5830,W,1,10,0.9,287.5,M,-34.2,M,,0000*65
$GPGSA,A,3,23,30,28,27,09,11,07,18,16,08,,,1.6,0.9,1.3*3B
$GPRMC,192209.000,A,4239.4921,N,08314.5830,W,2.17,86.50,050418,,,A*48
$GPGGA,192210.000,4239.4921,N,08314.5821,W,1,10,0.9,287.5,M,-34.2,M,,0000*6D
$GPGSA,A,3,23,30,28,27,09,11,07,18,16,08,,,1.6,0.9,1.3*3B
$GPRMC,192210.000,A,4239.4921,N,08314.5821,W,2.24,86.16,050418,,,A*42
$GPGGA,192211.000,4239.4921,N,08314.5812,W,1,10,0.9,287.5,M,-34.2,M,,0000*6C
$GPGSA,A,3,23,30,28,27,09,11,07,18,16,08,,,1.6,0.9,1.3*3B
$GPRMC,192211.000,A,4239.4921,N,08314.5812,W,2.46,88.81,050418,,,A*47
$GPGGA,192212.000,4239.4922,N,08314.5802,W,1,10,0.9,287.5,M,-34.2,M,,0000*6D
$GPGSA,A,3,23,30,28,27,09,11,07,18,16,08,,,1.6,0.9,1.3*3B
$GPRMC,192212.000,A,4239.4922,N,08314.5802,W,2.31,88.52,050418,,,A*48
$GPGGA,192213.000,4239.4922,N,08314.5793,W,1,10,0.9,287.5,M,-34.2,M,,0000*6B
$GPGSA,A,3,23,30,28,27,09,11,07,18,16,08,,,1.6,0.9,1.3*3B
$GPGSV,3,1,12,08,67,159,40,07,55,309,36,27,52,060,43,09,46,230,38*72
$GPGSV,3,2,12,30,28,304,33,23,25,189,39,16,24,062,33,11,15,171,31*7D
$GPGSV,3,3,12,28,11,256,23,18,07,149,26,21,02,028,24,48,20,240,30*70
$GPRMC,192213.000,A,4239.4922,N,08314.5793,W,2.22,86.69,050418,,,A*4A
$GPGGA,192214.000,4239.4921,N,08314.5785,W,1,10,0.9,287.3,M,-34.2,M,,0000*6E
$GPGSA,A,3,23,30,28,27,09,11,07,18,16,08,,,1.6,0.9,1.3*3B
$GPRMC,192214.000,A,4239.4921,N,08314.5785,W,1.94,82.47,050418,,,A*4F
$GPGGA,192215.000,4239.4921,N,08314.5777,W,1,10,0.9,287.3,M,-34.2,M,,0000*62
$GPGSA,A,3,23,30,28,27,09,11,07,18,16,08,,,1.6,0.9,1.3*3B
$GPRMC,192215.000,A,4239.4921,N,08314.5777,W,1.99,88.91,050418,,,A*4F
$GPGGA,192216.000,4239.4921,N,08314.5768,W,1,10,0.9,287.3,M,-34.2,M,,0000*6F
$GPGSA,A,3,23,30,28,27,09,11,07,18,16,08,,,1.6,0.9,1.3*3B
$GPRMC,192216.000,A,4239.4921,N,08314.5768,W,2.40,83.92,050418,,,A*4D
$GPGGA,192217.000,4239.4921,N,08314.5758,W,1,10,0.9,287.2,M,-34.2,M,,0000*6C
$GPGSA,A,3,23,30,28,27,09,11,07,18,16,08,,,1.6,0.9,1.3*3B
$GPRMC,192217.000,A,4239.4921,N,08314.5758,W,2.49,89.08,050418,,,A*4F
$GPGGA,192218.000,4239.4921,N,08314.5748,W,1,10,0.9,287.0,M,-34.2,M,,0000*60
$GPGSA,A,3,23,30,28,27,09,11,07,18,16,08,,,1.6,0.9,1.3*3B
$GPGSV,3,1,12,08,67,159,39,07,55,309,32,27,52,060,42,09,46,230,32*73
$GPGSV,3,2,12,30,28,304,32,23,25,189,36,16,24,062,33,11,15,171,30*72
$GPGSV,3,3,12,28,11,256,24,18,07,149,27,21,02,028,19,48,20,240,27*7E
$GPRMC,192218.000,A,4239.4921,N,08314.5748,W,2.36,88.89,050418,,,A*41
$GPGGA,192219.000,4239.4921,N,08314.5738,W,1,10,0.9,286.8,M,-34.2,M,,0000*6F
$GPGSA,A,3,23,30,28,27,09,11,07,18,16,08,,,1.6,0.9,1.3*3B
$GPRMC,192219.000,A,4239.4921,N,08314.5738,W,2.45,88.69,050418,,,A*4D
$GPGGA,192220.000,4239.4920,N,08314.5729,W,1,10,0.9,286.8,M,-34.2,M,,0000*64
$GPGSA,A,3,23,30,28,27,09,11,07,18,16,08,,,1.6,0.9,1.3*3B
$GPRMC,192220.000,A,4239.4920,N,08314.5729,W,2.34,89.37,050418,,,A*4A
$GPGGA,192221.000,4239.4920,N,08314.5720,W,1,10,0.9,286.9,M,-34.2,M,,0000*6D
$GPGSA,A,3,23,30,28,27,09,11,07,18,16,08,,,1.6,0.9,1.3*3B
$GPRMC,192221.000,A,4239.4920,N,08314.5720,W,2.25,80.76,050418,,,A*4E
$GPGGA,192222.000,4239.4920,N,08314.5710,W,1,10,0.9,286.8,M,-34.2,M,,0000*6C
$GPGSA,A,3,23,30,28,27,09,11,07,18,16,08,,,1.6,0.9,1.3*3B
$GPRMC,192222.000,A,4239.4920,N,08314.5710,W,2.43,86.49,050418,,,A*44
$GPGGA,192223.000,4239.4920,N,08314.5701,W,1,10,0.9,286.7,M,-34.2,M,,0000*62
$GPGSA,A,3,23,30,28,27,09,11,07,18,16,08,,,1.6,0.9,1.3*3B
$GPGSV,3,1,12,08,67,159,40,07,55,309,34,27,52,060,42,09,46,230,35*7C
$GPGSV,3,2,12,30,28,304,31,23,25,189,36,16,24,062,33,11,15,171,25*75
$GPGSV,3,3,12,28,11,256,23,18,07,149,26,21,02,028,20,48,20,240,29*7C
$GPRMC,192223.000,A,4239.4920,N,08314.5701,W,2.22,85.92,050418,,,A*47
$GPGGA,192224.000,4239.4920,N,08314.5691,W,1,10,0.9,286.4,M,-34.2,M,,0000*6E
$GPGSA,A,3,23,30,28,27,09,11,07,18,16,08,,,1.6,0.9,1.3*3B
$GPRMC,192224.000,A,4239.4920,N,08314.5691,W,2.16,90.03,050418,,,A*43
$GPGGA,192225.000,4239.4919,N,08314.5681,W,1,10,0.9,286.0,M,-34.2,M,,0000*60
$GPGSA,A,3,23,30,28,27,09,11,07,18,16,08,,,1.6,0.9,1.3*3B
$GPRMC,192225.000,A,4239.4919,N,08314.5681,W,2.35,87.05,050418,,,A*48
$GPGGA,192226.000,4239.4919,N,08314.5672,W,1,10,0.9,285.9,M,-34.2,M,,0000*65
$GPGSA,A,3,23,30,28,27,09,11,07,18,16,08,,,1.6,0.9,1.3*3B
$GPRMC,192226.000,A,4239.4919,N,08314.5672,W,2.43,84.81,050418,,,A*49
$GPGGA,192227.000,4239.4919,N,08314.5661,W,1,10,0.9,285.8,M,-34.2,M,,0000*67
$GPGSA,A,3,23,30,28,27,09,11,07,18,16,08,,,1.6,0.9,1.3*3B
$GPRMC,192227.000,A,4239.4919,N,08314.5661,W,2.57,89.31,050418,,,A*49
$GPGGA,192228.000,4239.4919,N,08314.5650,W,1,10,0.9,285.6,M,-34.2,M,,0000*64
$GPGSA,A,3,23,30,28,27,09,11,07,18,16,08,,,1.6,0.9,1.3*3B
$GPGSV,3,1,12,08,67,159,39,07,55,309,31,27,52,060,40,09,46,230,35*75
$GPGSV,3,2,12,30,28,304,28,23,25,189,36,16,24,062,31,11,15,171,26*7C
$GPGSV,3,3,12,28,11,256,23,18,07,149,25,21,02,028,20,48,20,240,27*71
$GPRMC,192228.000,A,4239.4919,N,08314.5650,W,2.38,84.10,050418,,,A*43
$GPGGA,192229.000,4239.4918,N,08314.5640,W,1,10,0.9,285.3,M,-34.2,M,,0000*60
$GPGSA,A,3,23,30,28,27,09,11,07,18,16,08,,,1.6,0.9,1.3*3B
$GPRMC,192229.000,A,4239.4918,N,08314.5640,W,2.37,86.76,050418,,,A*4F
$GPGGA,192230.000,4239.4918,N,08314.5631,W,1,10,0.9,285.2,M,-34.2,M,,0000*6F
$GPGSA,A,3,23,30,28,27,09,11,07,18,16,08,,,1.6,0.9,1.3*3B
$GPRMC,192230.000,A,4239.4918,N,08314.5631,W,2.31,81.74,050418,,,A*42
$GPGGA,192231.000,4239.4918,N,08314.5621,W,1,10,0.9,284.9,M,-34.2,M,,0000*65
$GPGSA,A,3,23,30,28,27,09,11,07,18,16,08,,,1.6,0.9,1.3*3B
$GPRMC,192231.000,A,4239.4918,N,08314.5621,W,2.44,89.40,050418,,,A*4F
$GPGGA,192232.000,4239.4918,N,08314.5612,W,1,09,0.9,284.7,M,-34.2,M,,0000*60
$GPGSA,A,3,23,30,28,27,09,07,18,16,08,,,,1.6,0.9,1.3*3B
$GPRMC,192232.000,A,4239.4918,N,08314.5612,W,2.40,89.80,050418,,,A*44
$GPGGA,192233.000,4239.4918,N,08314.5603,W,1,10,0.9,284.6,M,-34.2,M,,0000*68
$GPGSA,A,3,23,30,28,27,09,11,07,18,16,08,,,1.6,0.9,1.3*3B
$GPGSV,3,1,12,08,67,159,38,07,55,309,37,27,52,060,40,09,46,230,34*73
$GPGSV,3,2,12,30,28,304,28,23,25,189,33,16,24,062,33,11,15,171,27*7A
$GPGSV,3,3,12,28,11,256,23,18,07,149,23,21,02,028,19,48,20,240,28*72
$GPRMC,192233.000,A,4239.4918,N,08314.5603,W,2.26,86.89,050418,,,A*43
$GPGGA,192234.000,4239.4918,N,08314.5593,W,1,10,0.9,284.9,M,-34.2,M,,0000*6A
$GPGSA,A,3,23,30,28,27,09,11,07,18,16,08,,,1.6,0.9,1.3*3B
$GPRMC,192234.000,A,4239.4918,N,08314.5593,W,2.34,86.79,050418,,,A*42
$GPGGA,192235.000,4239.4919,N,08314.5586,W,1,10,0.9,284.7,M,-34.2,M,,0000*60
$GPGSA,A,3,23,30,28,27,09,11,07,18,16,08,,,1.6,0.9,1.3*3B
$GPRMC,192235.000,A,4239.4919,N,08314.5586,W,1.77,69.49,050418,,,A*40
$GPGGA,192236.000,4239.4922,N,08314.5581,W,1,10,0.9,284.5,M,-34.2,M,,0000*6E
$GPGSA,A,3,23,30,28,27,09,11,07,18,16,08,,,1.6,0.9,1.3*3B
$GPRMC,192236.000,A,4239.4922,N,08314.5581,W,1.89,28.88,050418,,,A*45
$GPGGA,192237.000,4239.4928,N,08314.5580,W,1,10,0.9,284.3,M,-34.2,M,,0000*62
$GPGSA,A,3,23,30,28,27,09,11,07,18,16,08,,,1.6,0.9,1.3*3B
$GPRMC,192237.000,A,4239.4928,N,08314.5580,W,2.17,8.47,050418,,,A*7A
$GPGGA,192238.000,4239.4934,N,08314.5579,W,1,10,0.9,283.9,M,-34.2,M,,0000*6B
$GPGSA,A,3,23,30,28,27,09,11,07,18,16,08,,,1.6,0.9,1.3*3B
$GPGSV,3,1,12,08,67,159,28,07,55,309,38,27,52,060,41,09,46,230,34*7C
$GPGSV,3,2,12,30,28,304,30,23,25,189,33,16,24,062,34,11,15,171,22*71
$GPGSV,3,3,12,28,11,256,30,18,07,149,16,21,02,028,18,48,20,240,34*7A
$GPRMC,192238.000,A,4239.4934,N,08314.5579,W,2.27,2.52,050418,,,A*73
$GPGGA,192239.000,4239.4941,N,08314.5579,W,1,10,0.9,283.7,M,-34.2,M,,0000*66
$GPGSA,A,3,23,30,28,27,09,11,07,18,16,08,,,1.6,0.9,1.3*3B
$GPRMC,192239.000,A,4239.4941,N,08314.5579,W,2.64,2.09,050418,,,A*79
$GPGGA,192240.000,4239.4948,N,08314.5580,W,1,10,0.9,283.3,M,-34.2,M,,0000*63
$GPGSA,A,3,23,30,28,27,09,11,07,18,16,08,,,1.6,0.9,1.3*3B
$GPRMC,192240.000,A,4239.4948,N,08314.5580,W,2.44,357.39,050418,,,A*7A
$GPGGA,192241.000,4239.4954,N,08314.5580,W,1,10,0.9,282.9,M,-34.2,M,,0000*64
$GPGSA,A,3,23,30,28,27,09,11,07,18,16,08,,,1.6,0.9,1.3*3B
$GPRMC,192241.000,A,4239.4954,N,08314.5580,W,2.36,3.73,050418,,,A*7F
$GPGGA,192242.000,4239.4961,N,08314.5580,W,1,10,0.9,282.5,M,-34.2,M,,0000*6D
$GPGSA,A,3,23,30,28,27,09,11,07,18,16,08,,,1.6,0.9,1.3*3B
$GPRMC,192242.000,A,4239.4961,N,08314.5580,W,2.41,3.73,050418,,,A*7A
$GPGGA,192243.000,4239.4968,N,08314.5580,W,1,10,0.9,282.3,M,-34.2,M,,0000*63
$GPGSA,A,3,23,30,28,27,09,11,07,18,16,08,,,1.6,0.9,1.3*3B
$GPGSV,3,1,12,08,68,159,29,07,55,309,39,27,52,059,43,09,46,230,34*7B
$GPGSV,3,2,12,30,28,304,31,23,25,189,33,16,24,062,37,11,15,170,22*72
$GPGSV,3,3,12,28,11,256,27,18,08,149,19,21,02,028,17,48,20,240,33*74
$GPRMC,192243.000,A,4239.4968,N,08314.5580,W,2.67,1.33,050418,,,A*70
$GPGGA,192244.000,4239.4976,N,08314.5580,W,1,10,0.9,281.8,M,-34.2,M,,0000*63
$GPGSA,A,3,23,30,28,27,09,11,07,18,16,08,,,1.6,0.9,1.3*3B
$GPRMC,192244.000,A,4239.4976,N,08314.5580,W,2.21,4.41,050418,,,A*7A
$GPGGA,192245.000,4239.4982,N,08314.5580,W,1,10,0.9,281.4,M,-34.2,M,,0000*65
$GPGSA,A,3,23,30,28,27,09,11,07,18,16,08,,,1.6,0.9,1.3*3B
$GPRMC,192245.000,A,4239.4982,N,08314.5580,W,2.37,2.48,050418,,,A*78
$GPGGA,192246.000,4239.4990,N,08314.5581,W,1,10,0.9,281.1,M,-34.2,M,,0000*61
$GPGSA,A,3,23,30,28,27,09,11,07,18,16,08,,,1.6,0.9,1.3*3B
$GPRMC,192246.000,A,4239.4990,N,08314.5581,W,2.50,0.30,050418,,,A*75
$GPGGA,192247.000,4239.4997,N,08314.5581,W,1,10,0.9,280.8,M,-34.2,M,,0000*6F
$GPGSA,A,3,23,30,28,27,09,11,07,18,16,08,,,1.6,0.9,1.3*3B
$GPRMC,192247.000,A,4239.4997,N,08314.5581,W,2.47,3.94,050418,,,A*78
$GPGGA,192248.000,4239.5004,N,08314.5581,W,1,10,0.9,280.5,M,-34.2,M,,0000*6F
$GPGSA,A,3,23,30,28,27,09,11,07,18,16,08,,,1.6,0.9,1.3*3B
$GPGSV,3,1,11,08,68,159,30,07,55,309,40,27,52,059,43,09,46,230,34*7E
$GPGSV,3,2,11,30,28,304,32,23,25,189,33,16,24,062,38,11,15,170,22*7D
$GPGSV,3,3,11,28,11,256,27,18,08,149,20,21,02,028,17*45
$GPRMC,192248.000,A,4239.5004,N,08314.5581,W,2.28,4.06,050418,,,A*70
$GPGGA,192249.000,4239.5011,N,08314.5581,W,1,10,0.9,280.4,M,-34.2,M,,0000*6B
$GPGSA,A,3,23,30,28,27,09,11,07,18,16,08,,,1.6,0.9,1.3*3B
$GPRMC,192249.000,A,4239.5011,N,08314.5581,W,2.48,2.09,050418,,,A*7A
$GPGGA,192250.000,4239.5018,N,08314.5581,W,1,10,0.9,280.2,M,-34.2,M,,0000*6C
$GPGSA,A,3,23,30,28,27,09,11,07,18,16,08,,,1.6,0.9,1.3*3B
$GPRMC,192250.000,A,4239.5018,N,08314.5581,W,2.27,1.74,050418,,,A*7B
$GPGGA,192251.000,4239.5025,N,08314.5581,W,1,10,0.9,280.0,M,-34.2,M,,0000*61
$GPGSA,A,3,23,30,28,27,09,11,07,18,16,08,,,1.6,0.9,1.3*3B
$GPRMC,192251.000,A,4239.5025,N,08314.5581,W,2.35,4.38,050418,,,A*7A
$GPGGA,192252.000,4239.5032,N,08314.5582,W,1,10,0.9,279.7,M,-34.2,M,,0000*66
$GPGSA,A,3,23,30,28,27,09,11,07,18,16,08,,,1.6,0.9,1.3*3B
$GPRMC,192252.000,A,4239.5032,N,08314.5582,W,2.26,4.40,050418,,,A*71
$GPGGA,192253.000,4239.5038,N,08314.5582,W,1,10,0.9,279.6,M,-34.2,M,,0000*6C
$GPGSA,A,3,23,30,28,27,09,11,07,18,16,08,,,1.6,0.9,1.3*3B
$GPGSV,3,1,11,08,68,159,31,07,55,309,40,27,52,059,43,09,46,230,34*7F
$GPGSV,3,2,11,30,28,304,33,23,25,189,32,16,24,062,38,11,15,170,23*7C
$GPGSV,3,3,11,28,11,256,23,18,08,149,19,21,02,028,16*4A
$GPRMC,192253.000,A,4239.5038,N,08314.5582,W,2.56,1.61,050418,,,A*7B
$GPGGA,192254.000,4239.5045,N,08314.5582,W,1,10,0.9,279.6,M,-34.2,M,,0000*61
$GPGSA,A,3,23,30,28,27,09,11,07,18,16,08,,,1.6,0.9,1.3*3B
$GPRMC,192254.000,A,4239.5045,N,08314.5582,W,2.37,1.68,050418,,,A*78
$GPGGA,192255.000,4239.5052,N,08314.5583,W,1,10,0.9,279.3,M,-34.2,M,,0000*62
$GPGSA,A,3,23,30,28,27,09,11,07,18,16,08,,,1.6,0.9,1.3*3B
$GPRMC,192255.000,A,4239.5052,N,08314.5583,W,2.07,4.14,050418,,,A*73
$GPGGA,192256.000,4239.5058,N,08314.5583,W,1,10,0.9,279.2,M,-34.2,M,,0000*6A
$GPGSA,A,3,23,30,28,27,09,11,07,18,16,08,,,1.6,0.9,1.3*3B
$GPRMC,192256.000,A,4239.5058,N,08314.5583,W,2.30,3.93,050418,,,A*76
$GPGGA,192257.000,4239.5065,N,08314.5582,W,1,10,0.9,279.1,M,-34.2,M,,0000*67
$GPGSA,A,3,23,30,28,27,09,11,07,18,16,08,,,1.6,0.9,1.3*3B
$GPRMC,192257.000,A,4239.5065,N,08314.5582,W,2.00,4.37,050418,,,A*72
$GPGGA,192258.000,4239.5071,N,08314.5582,W,1,10,0.9,279.0,M,-34.2,M,,0000*6C
$GPGSA,A,3,23,30,28,27,09,11,07,18,16,08,,,1.6,0.9,1.3*3B
$GPGSV,3,1,11,08,68,159,29,07,55,309,41,27,52,059,43,09,46,230,34*77
$GPGSV,3,2,11,30,28,304,33,23,25,189,32,16,24,062,38,11,15,170,24*7B
$GPGSV,3,3,11,28,11,256,21,18,08,149,19,21,02,028,15*4B
$GPRMC,192258.000,A,4239.5071,N,08314.5582,W,2.18,2.69,050418,,,A*7C
$GPGGA,192259.000,4239.5079,N,08314.5582,W,1,10,0.9,278.5,M,-34.2,M,,0000*61
$GPGSA,A,3,23,30,28,27,09,11,07,18,16,08,,,1.6,0.9,1.3*3B
$GPRMC,192259.000,A,4239.5079,N,08314.5582,W,2.33,3.18,050418,,,A*7B
$GPGGA,192300.000,4239.5086,N,08314.5582,W,1,10,0.9,278.7,M,-34.2,M,,0000*6E
$GPGSA,A,3,23,30,28,27,09,11,07,18,16,08,,,1.6,0.9,1.3*3B
$GPRMC,192300.000,A,4239.5086,N,08314.5582,W,2.56,4.25,050418,,,A*7C
$GPGGA,192301.000,4239.5094,N,08314.5582,W,1,10,0.9,278.5,M,-34.2,M,,0000*6E
$GPGSA,A,3,23,30,28,27,09,11,07,18,16,08,,,1.6,0.9,1.3*3B
$GPRMC,192301.000,A,4239.5094,N,08314.5582,W,2.63,4.52,050418,,,A*78
$GPGGA,192302.000,4239.5102,N,08314.5582,W,1,10,0.9,278.5,M,-34.2,M,,0000*63
$GPGSA,A,3,23,30,28,27,09,11,07,18,16,08,,,1.6,0.9,1.3*3B
$GPRMC,192302.000,A,4239.5102,N,08314.5582,W,2.54,2.81,050418,,,A*79
$GPGGA,192303.000,4239.5110,N,08314.5582,W,1,10,0.9,278.1,M,-34.2,M,,0000*65
$GPGSA,A,3,23,30,28,27,09,11,07,18,16,08,,,1.6,0.9,1.3*3B
$GPGSV,3,1,11,08,68,159,28,07,55,309,41,27,52,059,43,09,46,230,34*76
$GPGSV,3,2,11,30,28,304,33,23,25,189,32,16,24,062,39,11,15,170,25*7B
$GPGSV,3,3,11,28,11,256,19,18,08,149,20,21,02,028,15*4A
$GPRMC,192303.000,A,4239.5110,N,08314.5582,W,2.56,0.34,050418,,,A*75
$GPGGA,192304.000,4239.5118,N,08314.5583,W,1,10,0.9,278.0,M,-34.2,M,,0000*6A
$GPGSA,A,3,23,30,28,27,09,11,07,18,16,08,,,1.6,0.9,1.3*3B
$GPRMC,192304.000,A,4239.5118,N,08314.5583,W,2.39,1.74,050418,,,A*77
$GPGGA,192305.000,4239.5124,N,08314.5582,W,1,10,0.9,278.1,M,-34.2,M,,0000*64
$GPGSA,A,3,23,30,28,27,09,11,07,18,16,08,,,1.6,0.9,1.3*3B
$GPRMC,192305.000,A,4239.5124,N,08314.5582,W,2.19,5.27,050418,,,A*78
$GPGGA,192306.000,4239.5130,N,08314.5582,W,1,10,0.9,278.4,M,-34.2,M,,0000*67
$GPGSA,A,3,23,30,28,27,09,11,07,18,16,08,,,1.6,0.9,1.3*3B
$GPRMC,192306.000,A,4239.5130,N,08314.5582,W,2.25,2.28,050418,,,A*79
$GPGGA,192307.000,4239.5136,N,08314.5580,W,1,10,0.9,278.7,M,-34.2,M,,0000*61
$GPGSA,A,3,23,30,28,27,09,11,07,18,16,08,,,1.6,0.9,1.3*3B
$GPRMC,192307.000,A,4239.5136,N,08314.5580,W,2.48,6.38,050418,,,A*72
$GPGGA,192308.000,4239.5143,N,08314.5580,W,1,10,0.9,279.0,M,-34.2,M,,0000*6A
$GPGSA,A,3,23,30,28,27,09,11,07,18,16,08,,,1.6,0.9,1.3*3B
$GPGSV,3,1,11,08,68,159,22,07,55,309,38,27,52,059,42,09,46,230,34*73
$GPGSV,3,2,11,30,28,304,27,23,25,189,31,16,24,062,32,11,15,170,25*76
$GPGSV,3,3,11,28,11,256,18,18,08,149,19,21,02,028,15*41
$GPRMC,192308.000,A,4239.5143,N,08314.5580,W,2.57,4.09,050418,,,A*71
$GPGGA,192309.000,4239.5151,N,08314.5580,W,1,10,0.9,278.9,M,-34.2,M,,0000*60
$GPGSA,A,3,23,30,28,27,09,11,07,18,16,08,,,1.6,0.9,1.3*3B
$GPRMC,192309.000,A,4239.5151,N,08314.5580,W,2.56,4.29,050418,,,A*70
$GPGGA,192310.000,4239.5158,N,08314.5580,W,1,10,0.9,278.7,M,-34.2,M,,0000*6F
$GPGSA,A,3,23,30,28,27,09,11,07,18,16,08,,,1.6,0.9,1.3*3B
$GPRMC,192310.000,A,4239.5158,N,08314.5580,W,2.25,6.89,050418,,,A*7D
$GPGGA,192311.000,4239.5165,N,08314.5580,W,1,10,0.9,278.3,M,-34.2,M,,0000*64
$GPGSA,A,3,23,30,28,27,09,11,07,18,16,08,,,1.6,0.9,1.3*3B
$GPRMC,192311.000,A,4239.5165,N,08314.5580,W,2.08,7.64,050418,,,A*7F
$GPGGA,192312.000,4239.5172,N,08314.5580,W,1,10,0.9,278.2,M,-34.2,M,,0000*60
$GPGSA,A,3,23,30,28,27,09,11,07,18,16,08,,,1.6,0.9,1.3*3B
$GPRMC,192312.000,A,4239.5172,N,08314.5580,W,2.43,6.51,050418,,,A*72
$GPGGA,192313.000,4239.5180,N,08314.5580,W,1,10,0.9,278.0,M,-34.2,M,,0000*6E
$GPGSA,A,3,23,30,28,27,09,11,07,18,16,08,,,1.6,0.9,1.3*3B
$GPGSV,3,1,11,08,68,158,23,07,55,310,39,27,52,059,42,09,46,229,34*72
$GPGSV,3,2,11,30,28,304,28,23,25,188,31,16,23,063,37,11,15,170,23*7D
$GPGSV,3,3,11,28,11,256,17,18,08,149,17,21,02,028,14*41
$GPRMC,192313.000,A,4239.5180,N,08314.5580,W,2.47,7.11,050418,,,A*7F
$GPGGA,192314.000,4239.5188,N,08314.5580,W,1,10,0.9,277.8,M,-34.2,M,,0000*66
$GPGSA,A,3,23,30,28,27,09,11,07,18,16,08,,,1.6,0.9,1.3*3B
$GPRMC,192314.000,A,4239.5188,N,08314.5580,W,2.56,0.45,050418,,,A*76
$GPGGA,192315.000,4239.5196,N,08314.5581,W,1,10,0.9,277.6,M,-34.2,M,,0000*67
$GPGSA,A,3,23,30,28,27,09,11,07,18,16,08,,,1.6,0.9,1.3*3B
$GPRMC,192315.000,A,4239.5196,N,08314.5581,W,2.50,0.24,050418,,,A*78
$GPGGA,192316.000,4239.5205,N,08314.5582,W,1,10,0.9,277.2,M,-34.2,M,,0000*6A
$GPGSA,A,3,23,30,28,27,09,11,07,18,16,08,,,1.6,0.9,1.3*3B
$GPRMC,192316.000,A,4239.5205,N,08314.5582,W,2.80,2.09,050418,,,A*71
$GPGGA,192317.000,4239.5213,N,08314.5582,W,1,10,0.9,276.9,M,-34.2,M,,0000*66
$GPGSA,A,3,23,30,28,27,09,11,07,18,16,08,,,1.6,0.9,1.3*3B
$GPRMC,192317.000,A,4239.5213,N,08314.5582,W,2.73,3.35,050418,,,A*75
$GPGGA,192318.000,4239.5221,N,08314.5582,W,1,10,0.9,277.1,M,-34.2,M,,0000*61
$GPGSA,A,3,23,30,28,27,09,11,07,18,16,08,,,1.6,0.9,1.3*3B
$GPGSV,3,1,11,08,68,158,22,07,55,310,39,27,52,059,42,09,46,229,34*73
$GPGSV,3,2,11,30,28,304,29,23,25,188,32,16,23,063,37,11,15,170,24*78
$GPGSV,3,3,11,28,11,256,14,18,08,149,19,21,02,028,14*4C
$GPRMC,192318.000,A,4239.5221,N,08314.5582,W,2.64,2.70,050418,,,A*7D
$GPGGA,192319.000,4239.5230,N,08314.5583,W,1,10,0.9,276.7,M,-34.2,M,,0000*66
$GPGSA,A,3,23,30,28,27,09,11,07,18,16,08,,,1.6,0.9,1.3*3B
$GPRMC,192319.000,A,4239.5230,N,08314.5583,W,2.71,359.90,050418,,,A*7A
$GPGGA,192320.000,4239.5238,N,08314.5583,W,1,10,0.9,276.6,M,-34.2,M,,0000*65
$GPGSA,A,3,23,30,28,27,09,11,07,18,16,08,,,1.6,0.9,1.3*3B
$GPRMC,192320.000,A,4239.5238,N,08314.5583,W,2.54,5.99,050418,,,A*7C
$GPGGA,192321.000,4239.5246,N,08314.5583,W,1,10,0.9,276.4,M,-34.2,M,,0000*6F
$GPGSA,A,3,23,30,28,27,09,11,07,18,16,08,,,1.6,0.9,1.3*3B
$GPRMC,192321.000,A,4239.5246,N,08314.5583,W,2.69,1.97,050418,,,A*70
$GPGGA,192322.000,4239.5252,N,08314.5583,W,1,10,0.9,276.7,M,-34.2,M,,0000*6A
$GPGSA,A,3,23,30,28,27,09,11,07,18,16,08,,,1.6,0.9,1.3*3B
$GPRMC,192322.000,A,4239.5252,N,08314.5583,W,1.99,0.81,050418,,,A*7C
$GPGGA,192323.000,4239.5258,N,08314.5583,W,1,10,0.9,277.0,M,-34.2,M,,0000*67
$GPGSA,A,3,23,30,28,27,09,11,07,18,16,08,,,1.6,0.9,1.3*3B
$GPGSV,3,1,11,08,68,158,23,07,55,310,39,27,52,059,42,09,46,229,32*74
$GPGSV,3,2,11,30,28,304,29,23,25,188,31,16,23,063,38,11,15,170,24*74
$GPGSV,3,3,11,28,11,256,15,18,08,149,19,21,02,028,15*4C
$GPRMC,192323.000,A,4239.5258,N,08314.5583,W,2.33,0.69,050418,,,A*72
$GPGGA,192324.000,4239.5266,N,08314.5583,W,1,10,0.9,276.8,M,-34.2,M,,0000*64
$GPGSA,A,3,23,30,28,27,09,11,07,18,16,08,,,1.6,0.9,1.3*3B
$GPRMC,192324.000,A,4239.5266,N,08314.5583,W,2.25,2.49,050418,,,A*7F
$GPGGA,192325.000,4239.5272,N,08314.5583,W,1,10,0.9,276.8,M,-34.2,M,,0000*60
$GPGSA,A,3,23,30,28,27,09,11,07,18,16,08,,,1.6,0.9,1.3*3B
$GPRMC,192325.000,A,4239.5272,N,08314.5583,W,2.14,5.19,050418,,,A*7B
$GPGGA,192326.000,4239.5277,N,08314.5582,W,1,10,0.9,277.2,M,-34.2,M,,0000*6C
$GPGSA,A,3,23,30,28,27,09,11,07,18,16,08,,,1.6,0.9,1.3*3B
$GPRMC,192326.000,A,4239.5277,N,08314.5582,W,2.39,1.40,050418,,,A*7B
$GPGGA,192327.000,4239.5284,N,08314.5582,W,1,10,0.9,277.8,M,-34.2,M,,0000*6B
$GPGSA,A,3,23,30,28,27,09,11,07,18,16,08,,,1.6,0.9,1.3*3B
$GPRMC,192327.000,A,4239.5284,N,08314.5582,W,2.34,1.79,050418,,,A*71
$GPGGA,192328.000,4239.5290,N,08314.5582,W,1,10,0.9,278.3,M,-34.2,M,,0000*65
$GPGSA,A,3,23,30,28,27,09,11,07,18,16,08,,,1.6,0.9,1.3*3B
$GPGSV,3,1,11,08,68,158,28,07,55,310,40,27,52,059,43,09,46,229,33*71
$GPGSV,3,2,11,30,28,304,30,23,25,188,33,16,23,063,39,11,15,170,24*7F
$GPGSV,3,3,11,28,11,256,16,18,08,149,20,21,02,028,19*49
$GPRMC,192328.000,A,4239.5290,N,08314.5582,W,2.26,4.03,050418,,,A*70
$GPGGA,192329.000,4239.5296,N,08314.5581,W,1,10,0.9,278.6,M,-34.2,M,,0000*64
$GPGSA,A,3,23,30,28,27,09,11,07,18,16,08,,,1.6,0.9,1.3*3B
$GPRMC,192329.000,A,4239.5296,N,08314.5581,W,2.34,3.32,050418,,,A*72
$GPGGA,192330.000,4239.5302,N,08314.5581,W,1,10,0.9,279.2,M,-34.2,M,,0000*65
$GPGSA,A,3,23,30,28,27,09,11,07,18,16,08,,,1.6,0.9,1.3*3B
$GPRMC,192330.000,A,4239.5302,N,08314.5581,W,2.41,4.13,050418,,,A*70
$GPGGA,192331.000,4239.5309,N,08314.5580,W,1,10,0.9,279.5,M,-34.2,M,,0000*69
$GPGSA,A,3,23,30,28,27,09,11,07,18,16,08,,,1.6,0.9,1.3*3B
$GPRMC,192331.000,A,4239.5309,N,08314.5580,W,2.27,5.84,050418,,,A*74
$GPGGA,192332.000,4239.5314,N,08314.5580,W,1,10,0.9,280.4,M,-34.2,M,,0000*61
$GPGSA,A,3,23,30,28,27,09,11,07,18,16,08,,,1.6,0.9,1.3*3B
$GPRMC,192332.000,A,4239.5314,N,08314.5580,W,2.40,3.74,050418,,,A*73
$GPGGA,192333.000,4239.5321,N,08314.5580,W,1,10,0.9,280.5,M,-34.2,M,,0000*67
$GPGSA,A,3,23,30,28,27,09,11,07,18,16,08,,,1.6,0.9,1.3*3B
$GPGSV,3,1,11,08,68,158,24,07,55,310,41,27,52,059,44,09,46,229,32*7A
$GPGSV,3,2,11,30,28,304,30,23,25,188,33,16,23,063,40,11,15,170,25*70
$GPGSV,3,3,11,28,11,256,16,18,08,149,20,21,02,028,22*41
$GPRMC,192333.000,A,4239.5321,N,08314.5580,W,2.36,4.33,050418,,,A*71
$GPGGA,192334.000,4239.5327,N,08314.5580,W,1,10,0.9,280.8,M,-34.2,M,,0000*6B
$GPGSA,A,3,23,30,28,27,09,11,07,18,16,08,,,1.6,0.9,1.3*3B
$GPRMC,192334.000,A,4239.5327,N,08314.5580,W,2.22,0.65,050418,,,A*72
$GPGGA,192335.000,4239.5334,N,08314.5581,W,1,10,0.9,281.0,M,-34.2,M,,0000*60
$GPGSA,A,3,23,30,28,27,09,11,07,18,16,08,,,1.6,0.9,1.3*3B
$GPRMC,192335.000,A,4239.5334,N,08314.5581,W,2.18,358.51,050418,,,A*70
$GPGGA,192336.000,4239.5339,N,08314.5583,W,1,10,0.9,281.0,M,-34.2,M,,0000*6C
$GPGSA,A,3,23,30,28,27,09,11,07,18,16,08,,,1.6,0.9,1.3*3B
$GPRMC,192336.000,A,4239.5339,N,08314.5583,W,1.38,332.98,050418,,,A*74
$GPGGA,192337.000,4239.5342,N,08314.5587,W,1,10,0.9,280.8,M,-34.2,M,,0000*6C
$GPGSA,A,3,23,30,28,27,09,11,07,18,16,08,,,1.6,0.9,1.3*3B
$GPRMC,192337.000,A,4239.5342,N,08314.5587,W,1.53,286.26,050418,,,A*7B
$GPGGA,192338.000,4239.5343,N,08314.5595,W,1,10,0.9,280.7,M,-34.2,M,,0000*6E
$GPGSA,A,3,23,30,28,27,09,11,07,18,16,08,,,1.6,0.9,1.3*3B
$GPGSV,3,1,11,08,68,158,40,07,55,310,42,27,52,059,36,09,46,229,40*7B
$GPGSV,3,2,11,30,28,304,37,23,25,188,35,16,23,063,27,11,15,170,27*72
$GPGSV,3,3,11,28,11,256,18,18,08,149,23,21,02,028,24*4A
$GPRMC,192338.000,A,4239.5343,N,08314.5595,W,2.13,275.34,050418,,,A*7E
$GPGGA,192339.000,4239.5344,N,08314.5604,W,1,10,0.9,280.6,M,-34.2,M,,0000*62
$GPGSA,A,3,23,30,28,27,09,11,07,18,16,08,,,1.6,0.9,1.3*3B
$GPRMC,192339.000,A,4239.5344,N,08314.5604,W,2.25,268.29,050418,,,A*76
$GPGGA,192340.000,4239.5344,N,08314.5614,W,1,10,0.9,280.7,M,-34.2,M,,0000*6C
$GPGSA,A,3,23,30,28,27,09,11,07,18,16,08,,,1.6,0.9,1.3*3B
$GPRMC,192340.000,A,4239.5344,N,08314.5614,W,2.47,269.25,050418,,,A*70
$GPGGA,192341.000,4239.5345,N,08314.5624,W,1,10,0.9,280.8,M,-34.2,M,,0000*60
$GPGSA,A,3,23,30,28,27,09,11,07,18,16,08,,,1.6,0.9,1.3*3B
$GPRMC,192341.000,A,4239.5345,N,08314.5624,W,2.50,271.85,050418,,,A*76
$GPGGA,192342.000,4239.5345,N,08314.5634,W,1,10,0.9,280.5,M,-34.2,M,,0000*6F
$GPGSA,A,3,23,30,28,27,09,11,07,18,16,08,,,1.6,0.9,1.3*3B
$GPRMC,192342.000,A,4239.5345,N,08314.5634,W,2.59,266.78,050418,,,A*79
$GPGGA,192343.000,4239.5345,N,08314.5644,W,1,10,0.9,280.2,M,-34.2,M,,0000*6E
$GPGSA,A,3,23,30,28,27,09,11,07,18,16,08,,,1.6,0.9,1.3*3B
$GPGSV,3,1,11,08,68,158,41,07,55,310,43,27,51,059,34,09,46,229,39*74
$GPGSV,3,2,11,30,28,304,38,23,24,188,30,16,23,063,28,11,16,170,21*73
$GPGSV,3,3,11,28,11,257,24,18,08,149,24,21,02,028,29*4E
$GPRMC,192343.000,A,4239.5345,N,08314.5644,W,2.53,267.78,050418,,,A*74
$GPGGA,192344.000,4239.5346,N,08314.5654,W,1,10,0.9,280.2,M,-34.2,M,,0000*6B
$GPGSA,A,3,23,30,28,27,09,11,07,18,16,08,,,1.6,0.9,1.3*3B
$GPRMC,192344.000,A,4239.5346,N,08314.5654,W,2.52,268.94,050418,,,A*7D
$GPGGA,192345.000,4239.5346,N,08314.5664,W,1,10,0.9,280.0,M,-34.2,M,,0000*6B
$GPGSA,A,3,23,30,28,27,09,11,07,18,16,08,,,1.6,0.9,1.3*3B
$GPRMC,192345.000,A,4239.5346,N,08314.5664,W,2.46,271.70,050418,,,A*78
$GPGGA,192346.000,4239.5346,N,08314.5675,W,1,10,0.9,279.9,M,-34.2,M,,0000*67
$GPGSA,A,3,23,30,28,27,09,11,07,18,16,08,,,1.6,0.9,1.3*3B
$GPRMC,192346.000,A,4239.5346,N,08314.5675,W,2.72,268.48,050418,,,A*7F
$GPGGA,192347.000,4239.5346,N,08314.5686,W,1,10,0.9,280.1,M,-34.2,M,,0000*64
$GPGSA,A,3,23,30,28,27,09,11,07,18,16,08,,,1.6,0.9,1.3*3B
$GPRMC,192347.000,A,4239.5346,N,08314.5686,W,2.46,269.55,050418,,,A*78
$GPGGA,192348.000,4239.5346,N,08314.5696,W,1,10,0.9,280.0,M,-34.2,M,,0000*6B
$GPGSA,A,3,23,30,28,27,09,11,07,18,16,08,,,1.6,0.9,1.3*3B
$GPGSV,3,1,11,08,68,158,42,07,55,310,43,27,51,059,34,09,46,229,39*77
$GPGSV,3,2,11,30,28,304,37,23,24,188,30,16,23,063,27,11,16,170,26*74
$GPGSV,3,3,11,28,11,257,24,18,08,149,31,21,02,028,27*44
$GPRMC,192348.000,A,4239.5346,N,08314.5696,W,2.27,269.98,050418,,,A*70
$GPGGA,192349.000,4239.5347,N,08314.5705,W,1,10,0.9,280.0,M,-34.2,M,,0000*60
$GPGSA,A,3,23,30,28,27,09,11,07,18,16,08,,,1.6,0.9,1.3*3B
$GPRMC,192349.000,A,4239.5347,N,08314.5705,W,2.17,271.14,050418,,,A*75
$GPGGA,192350.000,4239.5348,N,08314.5715,W,1,10,0.9,280.0,M,-34.2,M,,0000*66
$GPGSA,A,3,23,30,28,27,09,11,07,18,16,08,,,1.6,0.9,1.3*3B
$GPRMC,192350.000,A,4239.5348,N,08314.5715,W,2.54,270.10,050418,,,A*71
$GPGGA,192351.000,4239.5348,N,08314.5725,W,1,10,0.9,280.1,M,-34.2,M,,0000*65
$GPGSA,A,3,23,30,28,27,09,11,07,18,16,08,,,1.6,0.9,1.3*3B
$GPRMC,192351.000,A,4239.5348,N,08314.5725,W,2.71,269.57,050418,,,A*7F
$GPGGA,192352.000,4239.5349,N,08314.5735,W,1,10,0.9,279.8,M,-34.2,M,,0000*69
$GPGSA,A,3,23,30,28,27,09,11,07,18,16,08,,,1.6,0.9,1.3*3B
$GPRMC,192352.000,A,4239.5349,N,08314.5735,W,2.22,272.46,050418,,,A*70
$GPGGA,192353.000,4239.5349,N,08314.5744,W,1,10,0.9,279.6,M,-34.2,M,,0000*60
$GPGSA,A,3,23,30,28,27,09,11,07,18,16,08,,,1.6,0.9,1.3*3B
$GPGSV,3,1,11,08,68,158,42,07,55,310,44,27,51,059,34,09,46,229,40*7E
$GPGSV,3,2,11,30,28,304,37,23,24,188,31,16,23,063,31,11,16,170,22*76
$GPGSV,3,3,11,28,11,257,27,18,08,149,23,21,02,028,27*44
$GPRMC,192353.000,A,4239.5349,N,08314.5744,W,2.42,270.26,050418,,,A*75
$GPGGA,192354.000,4239.5350,N,08314.5754,W,1,10,0.9,279.7,M,-34.2,M,,0000*6F
$GPGSA,A,3,23,30,28,27,09,11,07,18,16,08,,,1.6,0.9,1.3*3B
$GPRMC,192354.000,A,4239.5350,N,08314.5754,W,2.39,276.35,050418,,,A*73
$GPGGA,192355.000,4239.5351,N,08314.5764,W,1,10,0.9,279.6,M,-34.2,M,,0000*6D
$GPGSA,A,3,23,30,28,27,09,11,07,18,16,08,,,1.6,0.9,1.3*3B
$GPRMC,192355.000,A,4239.5351,N,08314.5764,W,2.45,274.32,050418,,,A*7E
$GPGGA,192356.000,4239.5352,N,08314.5774,W,1,10,0.9,279.7,M,-34.2,M,,0000*6D
$GPGSA,A,3,23,30,28,27,09,11,07,18,16,08,,,1.6,0.9,1.3*3B
$GPRMC,192356.000,A,4239.5352,N,08314.5774,W,2.71,268.03,050418,,,A*77
$GPGGA,192357.000,4239.5352,N,08314.5784,W,1,10,0.9,279.9,M,-34.2,M,,0000*6D
$GPGSA,A,3,23,30,28,27,09,11,07,18,16,08,,,1.6,0.9,1.3*3B
$GPRMC,192357.000,A,4239.5352,N,08314.5784,W,2.57,268.64,050418,,,A*7C
$GPGGA,192358.000,4239.5353,N,08314.5794,W,1,10,0.9,280.1,M,-34.2,M,,0000*6C
$GPGSA,A,3,23,30,28,27,09,11,07,18,16,08,,,1.6,0.9,1.3*3B
$GPGSV,3,1,11,08,68,158,43,07,55,310,44,27,51,059,33,09,46,229,39*76
$GPGSV,3,2,11,30,28,304,39,23,24,188,19,16,23,063,29,11,16,170,19*73
$GPGSV,3,3,11,28,11,257,28,18,08,149,25,21,02,028,28*42
$GPRMC,192358.000,A,4239.5353,N,08314.5794,W,2.63,267.62,050418,,,A*7D
$GPGGA,192359.000,4239.5353,N,08314.5804,W,1,10,0.9,280.2,M,-34.2,M,,0000*68
$GPGSA,A,3,23,30,28,27,09,11,07,18,16,08,,,1.6,0.9,1.3*3B
$GPRMC,192359.000,A,4239.5353,N,08314.5804,W,2.56,270.21,050418,,,A*7D
$GPGGA,192400.000,4239.5354,N,08314.5815,W,1,10,0.9,280.3,M,-34.2,M,,0000*65
$GPGSA,A,3,23,30,28,27,09,11,07,18,16,08,,,1.6,0.9,1.3*3B
$GPRMC,192400.000,A,4239.5354,N,08314.5815,W,2.43,274.06,050418,,,A*74
$GPGGA,192401.000,4239.5355,N,08314.5825,W,1,10,0.9,280.4,M,-34.2,M,,0000*61
$GPGSA,A,3,23,30,28,27,09,11,07,18,16,08,,,1.6,0.9,1.3*3B
$GPRMC,192401.000,A,4239.5355,N,08314.5825,W,2.52,274.05,050418,,,A*74
$GPGGA,192402.000,4239.5355,N,08314.5835,W,1,10,0.9,280.4,M,-34.2,M,,0000*63
$GPGSA,A,3,23,30,28,27,09,11,07,18,16,08,,,1.6,0.9,1.3*3B
$GPRMC,192402.000,A,4239.5355,N,08314.5835,W,2.35,270.13,050418,,,A*74
$GPGGA,192403.000,4239.5356,N,08314.5845,W,1,10,0.9,280.6,M,-34.2,M,,0000*64
$GPGSA,A,3,23,30,28,27,09,11,07,18,16,08,,,1.6,0.9,1.3*3B
$GPGSV,3,1,11,08,68,158,43,07,55,310,44,27,51,059,34,09,46,229,39*71
$GPGSV,3,2,11,30,28,304,39,23,24,188,20,16,23,063,28,11,16,170,18*79
$GPGSV,3,3,11,28,11,257,33,18,08,149,21,21,02,028,25*41
$GPRMC,192403.000,A,4239.5356,N,08314.5845,W,2.49,267.94,050418,,,A*73
$GPGGA,192404.000,4239.5356,N,08314.5855,W,1,10,0.9,280.9,M,-34.2,M,,0000*6D
$GPGSA,A,3,23,30,28,27,09,11,07,18,16,08,,,1.6,0.9,1.3*3B
$GPRMC,192404.000,A,4239.5356,N,08314.5855,W,2.40,268.30,050418,,,A*7D
$GPGGA,192405.000,4239.5356,N,08314.5865,W,1,10,0.9,281.0,M,-34.2,M,,0000*67
$GPGSA,A,3,23,30,28,27,09,11,07,18,16,08,,,1.6,0.9,1.3*3B
$GPRMC,192405.000,A,4239.5356,N,08314.5865,W,2.33,271.42,050418,,,A*76
$GPGGA,192406.000,4239.5357,N,08314.5875,W,1,10,0.9,281.2,M,-34.2,M,,0000*66
$GPGSA,A,3,23,30,28,27,09,11,07,18,16,08,,,1.6,0.9,1.3*3B
$GPRMC,192406.000,A,4239.5357,N,08314.5875,W,2.30,271.94,050418,,,A*7D
$GPGGA,192407.000,4239.5358,N,08314.5884,W,1,10,0.9,281.3,M,-34.2,M,,0000*67
$GPGSA,A,3,23,30,28,27,09,11,07,18,16,08,,,1.6,0.9,1.3*3B
$GPRMC,192407.000,A,4239.5358,N,08314.5884,W,2.30,271.14,050418,,,A*75
$GPGGA,192408.000,4239.5359,N,08314.5894,W,1,10,0.9,281.4,M,-34.2,M,,0000*6F
$GPGSA,A,3,23,30,28,27,09,11,07,18,16,08,,,1.6,0.9,1.3*3B
$GPGSV,3,1,11,08,68,158,42,07,55,310,43,27,51,059,34,09,46,229,39*77
$GPGSV,3,2,11,30,28,304,39,23,24,188,19,16,23,063,27,11,16,170,18*7C
$GPGSV,3,3,11,28,11,257,35,18,08,149,19,21,02,028,25*4C
$GPRMC,192408.000,A,4239.5359,N,08314.5894,W,2.35,269.27,050418,,,A*76
$GPGGA,192409.000,4239.5358,N,08314.5904,W,1,10,0.9,281.6,M,-34.2,M,,0000*65
$GPGSA,A,3,23,30,28,27,09,11,07,18,16,08,,,1.6,0.9,1.3*3B
$GPRMC,192409.000,A,4239.5358,N,08314.5904,W,2.48,270.51,050418,,,A*7D
$GPGGA,192410.000,4239.5358,N,08314.5915,W,1,10,0.9,281.5,M,-34.2,M,,0000*6E
$GPGSA,A,3,23,30,28,27,09,11,07,18,16,08,,,1.6,0.9,1.3*3B
$GPRMC,192410.000,A,4239.5358,N,08314.5915,W,2.61,267.70,050418,,,A*7B
$GPGGA,192411.000,4239.5358,N,08314.5925,W,1,10,0.9,281.4,M,-34.2,M,,0000*6D
$GPGSA,A,3,23,30,28,27,09,11,07,18,16,08,,,1.6,0.9,1.3*3B
$GPRMC,192411.000,A,4239.5358,N,08314.5925,W,2.63,265.04,050418,,,A*7A
$GPGGA,192412.000,4239.5358,N,08314.5935,W,1,10,0.9,281.4,M,-34.2,M,,0000*6F
$GPGSA,A,3,23,30,28,27,09,11,07,18,16,08,,,1.6,0.9,1.3*3B
$GPRMC,192412.000,A,4239.5358,N,08314.5935,W,2.59,266.09,050418,,,A*7F
$GPGGA,192413.000,4239.5358,N,08314.5946,W,1,10,0.9,281.5,M,-34.2,M,,0000*6B
$GPGSA,A,3,23,30,28,27,09,11,07,18,16,08,,,1.6,0.9,1.3*3B
$GPGSV,3,1,11,08,68,157,42,07,56,310,43,27,51,059,34,09,46,229,39*7B
$GPGSV,3,2,11,30,29,304,39,23,24,188,19,16,23,063,28,11,16,170,18*72
$GPGSV,3,3,11,28,11,257,36,18,08,149,17,21,02,028,26*42
$GPRMC,192413.000,A,4239.5358,N,08314.5946,W,2.48,270.57,050418,,,A*76
$GPGGA,192414.000,4239.5358,N,08314.5956,W,1,10,0.9,281.5,M,-34.2,M,,0000*6D
$GPGSA,A,3,23,30,28,27,09,11,07,18,16,08,,,1.6,0.9,1.3*3B
$GPRMC,192414.000,A,4239.5358,N,08314.5956,W,2.41,268.97,050418,,,A*7C
$GPGGA,192415.000,4239.5359,N,08314.5966,W,1,10,0.9,281.4,M,-34.2,M,,0000*6F
$GPGSA,A,3,23,30,28,27,09,11,07,18,16,08,,,1.6,0.9,1.3*3B
$GPRMC,192415.000,A,4239.5359,N,08314.5966,W,2.54,270.11,050418,,,A*7C
$GPGGA,192416.000,4239.5359,N,08314.5976,W,1,10,0.9,281.4,M,-34.2,M,,0000*6D
$GPGSA,A,3,23,30,28,27,09,11,07,18,16,08,,,1.6,0.9,1.3*3B
$GPRMC,192416.000,A,4239.5359,N,08314.5976,W,2.59,268.86,050418,,,A*74
$GPGGA,192417.000,4239.5359,N,08314.5986,W,1,10,0.9,281.5,M,-34.2,M,,0000*62
$GPGSA,A,3,23,30,28,27,09,11,07,18,16,08,,,1.6,0.9,1.3*3B
$GPRMC,192417.000,A,4239.5359,N,08314.5986,W,2.45,265.88,050418,,,A*74
$GPGGA,192418.000,4239.5359,N,08314.5996,W,1,10,0.9,281.6,M,-34.2,M,,0000*6F
$GPGSA,A,3,23,30,28,27,09,11,07,18,16,08,,,1.6,0.9,1.3*3B
$GPGSV,3,1,11,08,68,157,42,07,56,310,42,27,51,059,34,09,46,229,38*7B
$GPGSV,3,2,11,30,29,304,39,23,24,188,18,16,23,063,28,11,16,170,17*7C
$GPGSV,3,3,11,28,11,257,36,18,08,149,15,21,02,028,25*43
$GPRMC,192418.000,A,4239.5359,N,08314.5996,W,2.44,264.00,050418,,,A*7A
$GPGGA,192419.000,4239.5359,N,08314.6005,W,1,10,0.9,281.2,M,-34.2,M,,0000*6A
$GPGSA,A,3,23,30,28,27,09,11,07,18,16,08,,,1.6,0.9,1.3*3B
$GPRMC,192419.000,A,4239.5359,N,08314.6005,W,2.37,269.44,050418,,,A*72
$GPGGA,192420.000,4239.5360,N,08314.6013,W,1,10,0.9,280.9,M,-34.2,M,,0000*67
$GPGSA,A,3,23,30,28,27,09,11,07,18,16,08,,,1.6,0.9,1.3*3B
$GPRMC,192420.000,A,4239.5360,N,08314.6013,W,1.99,280.31,050418,,,A*77
$GPGGA,192421.000,4239.5360,N,08314.6022,W,1,10,0.9,280.9,M,-34.2,M,,0000*64
$GPGSA,A,3,23,30,28,27,09,11,07,18,16,08,,,1.6,0.9,1.3*3B
$GPRMC,192421.000,A,4239.5360,N,08314.6022,W,2.06,271.34,050418,,,A*7A
$GPGGA,192422.000,4239.5360,N,08314.6032,W,1,10,0.9,280.9,M,-34.2,M,,0000*66
$GPGSA,A,3,23,30,28,27,09,11,07,18,16,08,,,1.6,0.9,1.3*3B
$GPRMC,192422.000,A,4239.5360,N,08314.6032,W,2.36,270.38,050418,,,A*76
$GPGGA,192423.000,4239.5361,N,08314.6041,W,1,10,0.9,280.8,M,-34.2,M,,0000*63
$GPGSA,A,3,23,30,28,27,09,11,07,18,16,08,,,1.6,0.9,1.3*3B
$GPGSV,3,1,11,08,68,157,43,07,56,310,42,27,51,059,34,09,46,229,38*7A
$GPGSV,3,2,11,30,29,304,39,23,24,188,19,16,23,063,28,11,16,170,18*72
$GPGSV,3,3,11,28,11,257,36,18,08,149,15,21,02,028,24*42
$GPRMC,192423.000,A,4239.5361,N,08314.6041,W,2.53,271.28,050418,,,A*71
$GPGGA,192424.000,4239.5361,N,08314.6052,W,1,10,0.9,280.8,M,-34.2,M,,0000*66
$GPGSA,A,3,23,30,28,27,09,11,07,18,16,08,,,1.6,0.9,1.3*3B
$GPRMC,192424.000,A,4239.5361,N,08314.6052,W,2.44,273.09,050418,,,A*73
$GPGGA,192425.000,4239.5361,N,08314.6061,W,1,10,0.9,280.5,M,-34.2,M,,0000*6A
$GPGSA,A,3,23,30,28,27,09,11,07,18,16,08,,,1.6,0.9,1.3*3B
$GPRMC,192425.000,A,4239.5361,N,08314.6061,W,2.20,273.84,050418,,,A*75
$GPGGA,192426.000,4239.5362,N,08314.6071,W,1,10,0.9,280.5,M,-34.2,M,,0000*6B
$GPGSA,A,3,23,30,28,27,09,11,07,18,16,08,,,1.6,0.9,1.3*3B
$GPRMC,192426.000,A,4239.5362,N,08314.6071,W,2.31,270.10,050418,,,A*7A
$GPGGA,192427.000,4239.5361,N,08314.6081,W,1,10,0.9,280.4,M,-34.2,M,,0000*67
$GPGSA,A,3,23,30,28,27,09,11,07,18,16,08,,,1.6,0.9,1.3*3B
$GPRMC,192427.000,A,4239.5361,N,08314.6081,W,2.52,265.33,050418,,,A*77
$GPGGA,192428.000,4239.5361,N,08314.6091,W,1,10,0.9,280.0,M,-34.2,M,,0000*6D
$GPGSA,A,3,23,30,28,27,09,11,07,18,16,08,,,1.6,0.9,1.3*3B
$GPGSV,3,1,11,08,68,157,44,07,56,310,42,27,51,059,34,09,46,229,38*7D
$GPGSV,3,2,11,30,29,304,40,23,24,188,20,16,23,063,28,11,16,170,18*76
$GPGSV,3,3,11,28,11,257,38,18,08,149,14,21,02,028,24*4D
$GPRMC,192428.000,A,4239.5361,N,08314.6091,W,2.37,272.14,050418,,,A*79
$GPGGA,192429.000,4239.5362,N,08314.6100,W,1,10,0.9,279.9,M,-34.2,M,,0000*69
$GPGSA,A,3,23,30,28,27,09,11,07,18,16,08,,,1.6,0.9,1.3*3B
$GPRMC,192429.000,A,4239.5362,N,08314.6100,W,2.30,268.74,050418,,,A*78
$GPGGA,192430.000,4239.5361,N,08314.6110,W,1,10,0.9,279.8,M,-34.2,M,,0000*62
$GPGSA,A,3,23,30,28,27,09,11,07,18,16,08,,,1.6,0.9,1.3*3B
$GPRMC,192430.000,A,4239.5361,N,08314.6110,W,2.31,267.41,050418,,,A*7A
$GPGGA,192431.000,4239.5360,N,08314.6120,W,1,10,0.9,279.6,M,-34.2,M,,0000*6F
$GPGSA,A,3,23,30,28,27,09,11,07,18,16,08,,,1.6,0.9,1.3*3B
$GPRMC,192431.000,A,4239.5360,N,08314.6120,W,2.26,270.72,050418,,,A*79
$GPGGA,192432.000,4239.5360,N,08314.6129,W,1,10,0.9,279.4,M,-34.2,M,,0000*67
$GPGSA,A,3,23,30,28,27,09,11,07,18,16,08,,,1.6,0.9,1.3*3B
$GPRMC,192432.000,A,4239.5360,N,08314.6129,W,2.33,271.38,050418,,,A*78
$GPGGA,192433.000,4239.5360,N,08314.6140,W,1,10,0.9,279.3,M,-34.2,M,,0000*6E
$GPGSA,A,3,23,30,28,27,09,11,07,18,16,08,,,1.6,0.9,1.3*3B
$GPGSV,3,1,11,08,68,157,44,07,56,310,42,27,51,059,34,09,46,229,39*7C
$GPGSV,3,2,11,30,29,304,40,23,24,188,33,16,23,063,27,11,16,170,18*7B
$GPGSV,3,3,11,28,11,257,38,18,08,149,15,21,02,028,23*4B
$GPRMC,192433.000,A,4239.5360,N,08314.6140,W,2.51,268.65,050418,,,A*72
$GPGGA,192434.000,4239.5359,N,08314.6150,W,1,10,0.9,279.1,M,-34.2,M,,0000*60
$GPGSA,A,3,23,30,28,27,09,11,07,18,16,08,,,1.6,0.9,1.3*3B
$GPRMC,192434.000,A,4239.5359,N,08314.6150,W,2.36,266.09,050418,,,A*7B
$GPGGA,192435.000,4239.5358,N,08314.6160,W,1,10,0.9,279.1,M,-34.2,M,,0000*63
$GPGSA,A,3,23,30,28,27,09,11,07,18,16,08,,,1.6,0.9,1.3*3B
$GPRMC,192435.000,A,4239.5358,N,08314.6160,W,2.32,267.31,050418,,,A*76
$GPGGA,192436.000,4239.5358,N,08314.6170,W,1,10,0.9,279.0,M,-34.2,M,,0000*60
$GPGSA,A,3,23,30,28,27,09,11,07,18,16,08,,,1.6,0.9,1.3*3B
$GPRMC,192436.000,A,4239.5358,N,08314.6170,W,2.30,268.70,050418,,,A*7C
$GPGGA,192437.000,4239.5357,N,08314.6179,W,1,10,0.9,278.9,M,-34.2,M,,0000*6F
$GPGSA,A,3,23,30,28,27,09,11,07,18,16,08,,,1.6,0.9,1.3*3B
$GPRMC,192437.000,A,4239.5357,N,08314.6179,W,2.22,267.87,050418,,,A*7F
$GPGGA,192438.000,4239.5356,N,08314.6186,W,1,10,0.9,278.8,M,-34.2,M,,0000*60
$GPGSA,A,3,23,30,28,27,09,11,07,18,16,08,,,1.6,0.9,1.3*3B
$GPGSV,3,1,11,08,68,157,44,07,56,310,43,27,51,059,34,09,46,229,39*7D
$GPGSV,3,2,11,30,29,304,40,23,24,188,34,16,23,063,27,11,16,170,31*77
$GPGSV,3,3,11,28,11,257,38,18,08,149,15,21,02,028,24*4C
$GPRMC,192438.000,A,4239.5356,N,08314.6186,W,1.58,240.34,050418,,,A*72
$GPGGA,192439.000,4239.5351,N,08314.6191,W,1,10,0.9,278.8,M,-34.2,M,,0000*60
$GPGSA,A,3,23,30,28,27,09,11,07,18,16,08,,,1.6,0.9,1.3*3B
$GPRMC,192439.000,A,4239.5351,N,08314.6191,W,2.29,196.22,050418,,,A*78
$GPGGA,192440.000,4239.5344,N,08314.6193,W,1,10,0.9,278.8,M,-34.2,M,,0000*68
$GPGSA,A,3,23,30,28,27,09,11,07,18,16,08,,,1.6,0.9,1.3*3B
$GPRMC,192440.000,A,4239.5344,N,08314.6193,W,2.56,188.19,050418,,,A*7F
$GPGGA,192441.000,4239.5337,N,08314.6195,W,1,10,0.9,278.8,M,-34.2,M,,0000*6B
$GPGSA,A,3,23,30,28,27,09,11,07,18,16,08,,,1.6,0.9,1.3*3B
$GPRMC,192441.000,A,4239.5337,N,08314.6195,W,2.64,184.41,050418,,,A*7C
$GPGGA,192442.000,4239.5329,N,08314.6196,W,1,10,0.9,278.9,M,-34.2,M,,0000*65
$GPGSA,A,3,23,30,28,27,09,11,07,18,16,08,,,1.6,0.9,1.3*3B
$GPRMC,192442.000,A,4239.5329,N,08314.6196,W,2.76,181.53,050418,,,A*76
$GPGGA,192443.000,4239.5322,N,08314.6197,W,1,10,0.9,279.0,M,-34.2,M,,0000*66
$GPGSA,A,3,23,30,28,27,09,11,07,18,16,08,,,1.6,0.9,1.3*3B
$GPGSV,3,1,11,08,68,157,42,07,56,310,41,27,51,059,35,09,46,229,40*76
$GPGSV,3,2,11,30,29,304,30,23,24,188,35,16,23,063,33,11,16,170,33*76
$GPGSV,3,3,11,28,11,257,37,18,08,149,17,21,02,028,20*45
$GPRMC,192443.000,A,4239.5322,N,08314.6197,W,2.56,180.48,050418,,,A*74
$GPGGA,192444.000,4239.5314,N,08314.6197,W,1,10,0.9,279.0,M,-34.2,M,,0000*64
$GPGSA,A,3,23,30,28,27,09,11,07,18,16,08,,,1.6,0.9,1.3*3B
$GPRMC,192444.000,A,4239.5314,N,08314.6197,W,2.81,179.03,050418,,,A*75
$GPGGA,192445.000,4239.5307,N,08314.6197,W,1,10,0.9,279.0,M,-34.2,M,,0000*67
$GPGSA,A,3,23,30,28,27,09,11,07,18,16,08,,,1.6,0.9,1.3*3B
$GPRMC,192445.000,A,4239.5307,N,08314.6197,W,2.74,178.99,050418,,,A*7E
$GPGGA,192446.000,4239.5299,N,08314.6197,W,1,10,0.9,279.1,M,-34.2,M,,0000*63
$GPGSA,A,3,23,30,28,27,09,11,07,18,16,08,,,1.6,0.9,1.3*3B
$GPRMC,192446.000,A,4239.5299,N,08314.6197,W,2.73,177.23,050418,,,A*72
$GPGGA,192447.000,4239.5291,N,08314.6197,W,1,10,0.9,279.3,M,-34.2,M,,0000*68
$GPGSA,A,3,23,30,28,27,09,11,07,18,16,08,,,1.6,0.9,1.3*3B
$GPRMC,192447.000,A,4239.5291,N,08314.6197,W,2.81,179.69,050418,,,A*76
$GPGGA,192448.000,4239.5284,N,08314.6197,W,1,10,0.9,279.2,M,-34.2,M,,0000*62
$GPGSA,A,3,23,30,28,27,09,11,07,18,16,08,,,1.6,0.9,1.3*3B
$GPGSV,3,1,12,08,68,157,41,07,56,310,36,27,51,059,35,09,46,229,40*76
$GPGSV,3,2,12,30,29,304,30,23,24,188,35,16,23,063,28,11,16,170,35*79
$GPGSV,3,3,12,28,11,257,35,18,08,149,17,21,02,028,20,51,35,213,38*7D
$GPRMC,192448.000,A,4239.5284,N,08314.6197,W,2.66,180.64,050418,,,A*7F
$GPGGA,192449.000,4239.5276,N,08314.6198,W,1,10,0.9,279.2,M,-34.2,M,,0000*61
$GPGSA,A,3,23,30,28,27,09,11,07,18,16,08,,,1.6,0.9,1.3*3B
$GPRMC,192449.000,A,4239.5276,N,08314.6198,W,2.93,180.51,050418,,,A*70
$GPGGA,192450.000,4239.5268,N,08314.6199,W,1,10,0.9,279.3,M,-34.2,M,,0000*66
$GPGSA,A,3,23,30,28,27,09,11,07,18,16,08,,,1.6,0.9,1.3*3B
$GPRMC,192450.000,A,4239.5268,N,08314.6199,W,2.79,181.63,050418,,,A*72
$GPGGA,192451.000,4239.5261,N,08314.6199,W,1,10,0.9,279.3,M,-34.2,M,,0000*6E
$GPGSA,A,3,23,30,28,27,09,11,07,18,16,08,,,1.6,0.9,1.3*3B
$GPRMC,192451.000,A,4239.5261,N,08314.6199,W,2.59,181.05,050418,,,A*78
$GPGGA,192452.000,4239.5253,N,08314.6200,W,1,10,0.9,279.6,M,-34.2,M,,0000*6A
$GPGSA,A,3,23,30,28,27,09,11,07,18,16,08,,,1.6,0.9,1.3*3B
$GPRMC,192452.000,A,4239.5253,N,08314.6200,W,2.55,182.67,050418,,,A*72
$GPGGA,192453.000,4239.5245,N,08314.6202,W,1,10,0.9,280.0,M,-34.2,M,,0000*6E
$GPGSA,A,3,23,30,28,27,09,11,07,18,16,08,,,1.6,0.9,1.3*3B
$GPGSV,3,1,12,08,68,157,41,07,56,310,38,27,51,059,36,09,46,229,41*7A
$GPGSV,3,2,12,30,29,304,31,23,24,188,36,16,23,063,23,11,16,170,36*73
$GPGSV,3,3,12,28,11,257,29,18,08,149,16,21,02,028,20,51,35,213,35*7C
$GPRMC,192453.000,A,4239.5245,N,08314.6202,W,2.83,182.99,050418,,,A*7C
$GPGGA,192454.000,4239.5237,N,08314.6203,W,1,10,0.9,280.4,M,-34.2,M,,0000*69
$GPGSA,A,3,23,30,28,27,09,11,07,18,16,08,,,1.6,0.9,1.3*3B
$GPRMC,192454.000,A,4239.5237,N,08314.6203,W,2.66,181.87,050418,,,A*78
$GPGGA,192455.000,4239.5229,N,08314.6204,W,1,10,0.9,280.7,M,-34.2,M,,0000*63
$GPGSA,A,3,23,30,28,27,09,11,07,18,16,08,,,1.6,0.9,1.3*3B
$GPRMC,192455.000,A,4239.5229,N,08314.6204,W,2.57,181.79,050418,,,A*72
$GPGGA,192456.000,4239.5221,N,08314.6206,W,1,10,0.9,281.0,M,-34.2,M,,0000*6C
$GPGSA,A,3,23,30,28,27,09,11,07,18,16,08,,,1.6,0.9,1.3*3B
$GPRMC,192456.000,A,4239.5221,N,08314.6206,W,2.61,179.92,050418,,,A*7C
$GPGGA,192457.000,4239.5214,N,08314.6206,W,1,10,0.9,281.2,M,-34.2,M,,0000*69
$GPGSA,A,3,23,30,28,27,09,11,07,18,16,08,,,1.6,0.9,1.3*3B
$GPRMC,192457.000,A,4239.5214,N,08314.6206,W,2.66,183.32,050418,,,A*73
$GPGGA,192458.000,4239.5207,N,08314.6207,W,1,10,0.9,281.3,M,-34.2,M,,0000*64
$GPGSA,A,3,23,30,28,27,09,11,07,18,16,08,,,1.6,0.9,1.3*3B
$GPGSV,3,1,12,08,68,157,41,07,56,310,38,27,51,059,36,09,46,229,40*7B
$GPGSV,3,2,12,30,29,304,30,23,24,188,37,16,23,063,19,11,16,170,37*7B
$GPGSV,3,3,12,28,11,257,34,18,08,149,17,21,02,028,14,51,35,213,31*72
$GPRMC,192458.000,A,4239.5207,N,08314.6207,W,2.67,182.93,050418,,,A*74
$GPGGA,192459.000,4239.5199,N,08314.6207,W,1,10,0.9,281.3,M,-34.2,M,,0000*61
$GPGSA,A,3,23,30,28,27,09,11,07,18,16,08,,,1.6,0.9,1.3*3B
$GPRMC,192459.000,A,4239.5199,N,08314.6207,W,2.64,181.56,050418,,,A*78
$GPGGA,192500.000,4239.5191,N,08314.6207,W,1,10,0.9,281.2,M,-34.2,M,,0000*65
$GPGSA,A,3,23,30,28,27,09,11,07,18,16,08,,,1.6,0.9,1.3*3B
$GPRMC,192500.000,A,4239.5191,N,08314.6207,W,2.78,177.42,050418,,,A*7C
$GPGGA,192501.000,4239.5183,N,08314.6206,W,1,10,0.9,281.3,M,-34.2,M,,0000*67
$GPGSA,A,3,23,30,28,27,09,11,07,18,16,08,,,1.6,0.9,1.3*3B
$GPRMC,192501.000,A,4239.5183,N,08314.6206,W,2.71,176.70,050418,,,A*76
$GPGGA,192502.000,4239.5176,N,08314.6206,W,1,10,0.9,281.4,M,-34.2,M,,0000*69
$GPGSA,A,3,23,30,28,27,09,11,07,18,16,08,,,1.6,0.9,1.3*3B
$GPRMC,192502.000,A,4239.5176,N,08314.6206,W,2.58,178.17,050418,,,A*7B
$GPGGA,192503.000,4239.5167,N,08314.6206,W,1,10,0.9,281.7,M,-34.2,M,,0000*6B
$GPGSA,A,3,23,30,28,27,09,11,07,18,16,08,,,1.6,0.9,1.3*3B
$GPGSV,3,1,12,08,68,157,40,07,56,310,38,27,51,059,36,09,46,229,40*7A
$GPGSV,3,2,12,30,29,304,28,23,24,188,37,16,23,063,18,11,16,170,37*73
$GPGSV,3,3,12,28,11,257,34,18,08,149,18,21,02,028,14,51,35,213,26*7B
$GPRMC,192503.000,A,4239.5167,N,08314.6206,W,2.76,182.02,050418,,,A*77
$GPGGA,192504.000,4239.5159,N,08314.6206,W,1,10,0.9,281.8,M,-34.2,M,,0000*6E
$GPGSA,A,3,23,30,28,27,09,11,07,18,16,08,,,1.6,0.9,1.3*3B
$GPRMC,192504.000,A,4239.5159,N,08314.6206,W,2.89,178.08,050418,,,A*72
$GPGGA,192505.000,4239.5151,N,08314.6206,W,1,10,0.9,282.0,M,-34.2,M,,0000*6C
$GPGSA,A,3,23,30,28,27,09,11,07,18,16,08,,,1.6,0.9,1.3*3B
$GPRMC,192505.000,A,4239.5151,N,08314.6206,W,2.82,178.60,050418,,,A*7E
